id,type,name,latitude,longitude
1,bus_stop,Таганский ряд,56.8610442,60.5478216
2,bus_stop,Новгородцевой,56.8343105,60.6700939
3,bus_stop,Сады,56.8327544,60.3340556
4,bus_stop,Краснофлотцев,56.8849344,60.6146919
5,bus_stop,Отрадная,56.8174013,60.5321782
6,bus_stop,Норильская,56.8824749,60.6963295
7,bus_stop,Каменные палатки,56.8420847,60.6795436
8,tram_stop,Ж/Д Вокзал,56.856321,60.6057028
9,tram_stop,Кондукторская улица,56.8598948,60.6272177
10,tram_stop,Улица Учителей,56.8579512,60.6302607
11,tram_stop,Новгородцевой,56.8369488,60.6802533
12,tram_stop,Сиреневый бульвар,56.8350397,60.6850638
13,tram_stop,ЦПКиО (Центральный парк культуры и отдыха),56.8186606,60.6388362
14,tram_stop,УлицаТверитина,56.8227448,60.6359284
15,tram_stop,7 ключей,56.8835593,60.4981621
16,tram_stop,Маневровая улица,56.8737876,60.5182978
17,tram_stop,Теплоходный проезд,56.8633863,60.5406554
18,tram_stop,Улица Колмогорова,56.84649,60.5581093
19,tram_stop,Улица Колмогорова,56.8459447,60.5585561
20,tram_stop,Улица Кирова,56.8401587,60.5595626
21,tram_stop,Красноуральская улица,56.8359007,60.5554851
22,tram_stop,Малый Конный полуостров,56.8393185,60.5189041
23,tram_stop,Зелёный остров,56.8441783,60.4995323
24,tram_stop,Верх-Исетский бульвар,56.8381154,60.5753413
25,tram_stop,Улица Крылова,56.8395344,60.5703144
26,tram_stop,Педагогический университет,56.8779413,60.6117841
27,tram_stop,Калининская,56.8723394,60.6114251
28,tram_stop,1-й км,56.8629758,60.6120293
29,tram_stop,Пионерская,56.8601709,60.6184444
30,tram_stop,Техническое училище,56.8686037,60.6116386
31,tram_stop,Станция метро «Уралмаш»,56.887534,60.6126049
32,tram_stop,Площадь 1-й Пятилетки,56.8859723,60.594578
33,tram_stop,Улица Кузнецова,56.8884664,60.6081541
34,tram_stop,Дворец культуры им. Лаврова,56.8930473,60.6133854
35,tram_stop,Улица Уральских рабочих,56.9017117,60.5831806
36,tram_stop,Улица Машиностроителей,56.8850922,60.5848131
37,bus_stop,Первомайская,56.8420234,60.6326751
38,tram_stop,Московская улица,56.8290335,60.5835175
39,bus_stop,10-й км,56.7950932,60.7262807
40,bus_stop,Союз,56.8081909,60.7692565
41,bus_stop,Громова,56.7984232,60.5572316
42,bus_stop,Каменный ручей,56.7775307,60.6620451
43,bus_stop,Прониной,56.7739174,60.6671175
44,bus_stop,Байкальская,56.828727,60.6642197
45,bus_stop,Сад «Берёзка»,56.7836856,60.4714299
46,bus_stop,Госпиталь ВОВ,56.8101095,60.5068425
47,bus_stop,Лечебный,56.7949078,60.7275258
48,bus_stop,Уктус,56.7778358,60.6250927
49,bus_stop,Заречный,56.857358,60.5561588
50,bus_stop,Звезда,56.8667516,60.5843609
51,bus_stop,Палкино,56.8797044,60.406893
52,bus_stop,Уральская,56.8574855,60.6004725
53,bus_stop,Динамо,56.8476103,60.599374
54,bus_stop,Геологическая,56.8277976,60.6023917
55,bus_stop,Машиностроителей,56.8770332,60.6118115
56,bus_stop,Площадь 1905 года,56.8368759,60.5992742
57,metro,Проспект Космонавтов,56.9013921,60.6139981
58,bus_stop,Уралмаш,56.8882576,60.6135728
59,bus_stop,Шаумяна,56.8057519,60.5906704
60,bus_stop,Опалихинская,56.8506527,60.5637112
61,bus_stop,Юридическая академия,56.8478202,60.5652464
62,tram_stop,Студенческая улица,56.8584361,60.6562054
63,tram_stop,Сахалинская улица,56.8618499,60.663362
64,bus_stop,Посёлок Пески,56.8447579,60.7052482
65,tram_stop,улица Академика Шварца,56.7962998,60.6103087
66,tram_stop,Ювелирная,56.7916532,60.6049826
67,tram_stop,Вторчермет,56.7693592,60.6145752
68,tram_stop,Эскадронная улица,56.7655331,60.5935357
69,tram_stop,Санаторная улица,56.7693995,60.5961386
70,tram_stop,Керамическая,56.7568862,60.5958702
71,tram_stop,улица Челюскинцев,56.856434,60.6145344
72,tram_stop,Улица Лукиных,56.8835691,60.5630677
73,tram_stop,Эльмаш,56.8955453,60.638356
74,bus_stop,Посёлок Изоплит,56.8670571,60.7321876
75,tram_stop,Автомагистральная улица,56.8753405,60.5534038
76,bus_stop,Промышленный проезд,56.8803846,60.6749592
77,bus_stop,Сады,56.7416064,60.6556787
78,bus_stop,Заречный,56.9382337,60.6154538
79,bus_stop,Ж/д вокзал,56.8564475,60.6049215
80,bus_stop,Северный Химмаш,56.7681858,60.7093563
81,tram_stop,Дом Кино,56.8366127,60.6217585
82,tram_stop,УрФУ (Уральский федеральный университет),56.842954,60.6443
83,tram_stop,Улица Восточная,56.8413937,60.6313175
84,tram_stop,Улица Восточная,56.8415048,60.6311988
85,tram_stop,Улица Комсомольская,56.8410703,60.6589776
86,tram_stop,Профессорская,56.8403475,60.6526946
87,tram_stop,улица Гагарина,56.8400325,60.6465328
88,tram_stop,Улица Комсомольская,56.8412272,60.6600302
89,tram_stop,Каменные палатки,56.8413553,60.6784076
90,tram_stop,Новгородцевой,56.8374033,60.6800013
91,tram_stop,Улица 40-летия ВЛКСМ,56.834722,60.6916334
92,tram_stop,Улица Бажова,56.8409367,60.6261558
93,tram_stop,Улица Бажова,56.8407177,60.6256446
94,tram_stop,Оперный театр,56.8400645,60.618068
95,tram_stop,Оперный театр,56.8399067,60.6182042
96,tram_stop,Гостиница «Исеть»,56.8407994,60.6201123
97,tram_stop,Дом художника,56.8298021,60.6242984
98,tram_stop,Дом художника,56.8289999,60.6246438
99,tram_stop,Улица Белинского,56.8287219,60.6174422
100,tram_stop,Улица Белинского,56.8285772,60.6163709
101,tram_stop,Цирк,56.8272986,60.6039065
102,tram_stop,Цирк,56.8265478,60.6033594
103,tram_stop,улица Большакова,56.8182157,60.6064248
104,tram_stop,Автовокзал,56.8061306,60.6108885
105,tram_stop,Переулок Рижский,56.7855765,60.6067709
106,tram_stop,Переулок Рижский,56.7852103,60.6070507
107,tram_stop,Завод РТИ,56.7824619,60.6094669
108,tram_stop,Завод РТИ,56.7820469,60.6096745
109,tram_stop,Братская,56.7795172,60.6106278
110,tram_stop,Братская,56.7790558,60.6108324
111,tram_stop,Сухоложская,56.7763385,60.61193
112,tram_stop,Сухоложская,56.7758123,60.6121968
113,tram_stop,Первомайская улица,56.8453204,60.6446274
114,tram_stop,улица Блюхера,56.8515711,60.6404705
115,tram_stop,Советская улица,56.8540413,60.636539
116,tram_stop,Пионерская,56.8591686,60.6207666
117,tram_stop,Педагогический университет,56.8783639,60.6109021
118,tram_stop,Библиотека,56.8880247,60.5666403
119,tram_stop,Улица Сварщиков,56.8799358,60.5582039
120,tram_stop,Диагностический центр,56.88414,60.5700155
121,tram_stop,Улица 40-летия Октября,56.8846433,60.5763491
122,tram_stop,Улица Электриков,56.878269,60.6213185
123,tram_stop,Улица Краснофлотцев,56.8900622,60.6316793
124,tram_stop,улица Фронтовых Бригад,56.8833574,60.6386335
125,tram_stop,Улица Фрезеровщиков,56.900566,60.6181518
126,tram_stop,Улица Шевченко,56.8490132,60.6170708
127,tram_stop,Шарташская улица,56.8452118,60.6184955
128,tram_stop,Улица Пехотинцев,56.8703156,60.5491376
129,tram_stop,Таганский ряд,56.8616273,60.5477148
130,tram_stop,Фармацевтический колледж,56.8562467,60.5495145
131,tram_stop,"ТРЦ ""Карнавал""",56.8533336,60.5521808
132,tram_stop,Верх-Исетский рынок,56.8503162,60.5548923
133,bus_stop,улица Блюхера,56.8509436,60.6412857
134,tram_stop,Советская улица,56.8543895,60.6358969
135,tram_stop,улица Блюхера,56.8514743,60.6415442
136,tram_stop,Улица Мира,56.8535168,60.6458603
137,tram_stop,Сахалинская улица,56.862228,60.6640951
138,tram_stop,Шарташ,56.8646072,60.6693566
139,tram_stop,УрФУ (Уральский федеральный университет),56.8435476,60.6452775
140,tram_stop,Улица Ельцина,56.8453342,60.5861536
141,tram_stop,Улица Шейнкмана,56.8411595,60.5805491
142,tram_stop,площадь Коммунаров,56.8356033,60.5821522
143,tram_stop,Улица Сакко и Ванцетти,56.8367853,60.58764
144,bus_stop,Площадь 1-й пятилетки,56.8860901,60.5974852
145,bus_stop,Педуниверситет,56.8783625,60.6141675
146,bus_stop,Высоцкого,56.8433985,60.6880458
147,bus_stop,Расточная,56.8823127,60.5196095
148,bus_stop,Таганский ряд,56.8603692,60.5492256
149,bus_stop,Уральская,56.8616857,60.6254165
150,tram_stop,Разъезд,56.8368425,60.5304528
151,tram_stop,Дворец спорта,56.8165448,60.589125
152,tram_stop,Улица Куйбышева,56.8249629,60.58642
153,tram_stop,Улица Куйбышева,56.8257384,60.5861022
154,tram_stop,ЦПКиО (Центральный парк культуры и отдыха),56.8183796,60.6385975
155,tram_stop,Шарташ,56.8642693,60.6690393
156,bus_stop,Коммунистическая,56.9097455,60.5923394
157,tram_stop,Диагностический центр,56.8842243,60.5706006
158,tram_stop,Улица 40-летия Октября,56.8847347,60.576986
159,tram_stop,Улица Уральских рабочих,56.9020924,60.5835828
160,tram_stop,Кировградская улица,56.8975278,60.5777295
161,tram_stop,Улица Учителей,56.8576603,60.6308405
162,tram_stop,Первомайская улица,56.8458222,60.644382
163,bus_stop,"Табачная фабрика ""Альвис""",56.7753438,60.6241555
164,tram_stop,Улица Южная,56.8006142,60.6125249
165,tram_stop,Киностудия,56.8396796,60.6206595
166,tram_stop,Дворец молодёжи,56.8370508,60.5806056
167,bus_stop,Синие Камни,56.8238565,60.6748514
168,tram_stop,Шарташская улица,56.8456217,60.6182902
169,tram_stop,Площадь 1905 года,56.8374153,60.5955779
170,bus_stop,"Терминал ""Чкаловский""",56.7561044,60.7554885
171,bus_stop,5-й км,56.8164147,60.427352
172,tram_stop,Улица Мусоргского,56.7590394,60.5891915
173,bus_stop,Исток,56.7874115,60.7879187
174,bus_stop,Белореченская,56.8215796,60.5693475
175,tram_stop,Расточная улица,56.8776237,60.5126846
176,bus_stop,40 лет ВЛКСМ,56.8242191,60.6982734
177,bus_stop,Стрельбище «Динамо»,56.8310884,60.4437817
178,tram_stop,Сиреневый бульвар,56.8350443,60.6840922
179,bus_stop,Реактивная,56.7757665,60.83198
180,bus_stop,Дворец молодёжи,56.8371746,60.5817352
181,tram_stop,Улица Московская,56.8297767,60.5847557
182,tram_stop,Улица Кирова,56.8404331,60.5630628
183,tram_stop,Ферганская улица,56.7727277,60.6122257
184,tram_stop,Управление Свердловской железной дороги,56.8508826,60.593468
185,bus_stop,Южная подстанция,56.7461944,60.6062521
186,tram_stop,Ортопедическое предприятие,56.8511068,60.6164068
187,tram_stop,Улица Ляпустина,56.7720042,60.5992421
188,tram_stop,Улица Ляпустина,56.7719479,60.5996476
189,bus_stop,УрФУ,56.8434804,60.6453938
190,bus_stop,Площадь 1-й пятилетки,56.8863452,60.5912338
191,bus_stop,Площадь 1-й пятилетки,56.8864594,60.5927614
192,bus_stop,Спортивная,56.8936493,60.6413429
193,bus_stop,"ТСЦ ""Мега""",56.8223413,60.5028538
194,bus_stop,Ботаническая,56.797586,60.6309705
195,tram_stop,Улица Кузнецова,56.8873991,60.6077915
196,bus_stop,Радиоколледж,56.8322259,60.5257878
197,tram_stop,Школа им. С.В. Рахманинова,56.8685405,60.526879
198,tram_stop,Школа им. С.В. Рахманинова,56.8688749,60.5259754
199,tram_stop,ТК «Современник»,56.856285,60.6517701
200,tram_stop,Дом Кино,56.836045,60.6220364
201,bus_stop,Уктус,56.7808704,60.6561309
202,bus_stop,Шарташ,56.8301299,60.6464275
203,bus_stop,ЦПКиО,56.8111459,60.6330959
204,bus_stop,Лесное кладбище,56.757591,60.4522725
205,bus_stop,Хладокомбинат № 3,56.888961,60.5067722
206,tram_stop,ТЦ «Алатырь»,56.8322536,60.5835172
207,bus_stop,Чкаловская,56.8077315,60.6104566
208,bus_stop,Расточная,56.8834467,60.5211836
209,bus_stop,Екатеринбург-Пассажирский,56.8590244,60.6058587
210,bus_stop,Екатеринбург-Пассажирский,56.8594552,60.6058329
211,bus_stop,Екатеринбург-Пассажирский,56.8596815,60.6039467
212,bus_stop,Екатеринбург-Пассажирский,56.8598378,60.6039706
213,bus_stop,Екатеринбург-Пассажирский,56.8600125,60.6039973
214,bus_stop,Фрезеровщиков,56.9014432,60.6141681
215,tram_stop,Улица Войкова,56.8974855,60.6233289
216,tram_stop,Улица Войкова,56.8977368,60.6229476
217,tram_stop,Улица Энтузиастов,56.8941039,60.627153
218,tram_stop,Улица Энтузиастов,56.8945645,60.6265709
219,tram_stop,Станция метро Ботаническая,56.7983973,60.6282692
220,tram_stop,бульвар Малахова,56.7976308,60.6206586
221,tram_stop,улица Юлиуса Фучика,56.7976002,60.6116937
222,tram_stop,Дружининская улица,56.8814975,60.503258
223,tram_stop,Кишинёвская улица,56.8790725,60.5091317
224,bus_stop,Аппаратная,56.8715341,60.6748004
225,bus_stop,Чапаевская,56.8091591,60.7182184
226,bus_stop,Чапаевская,56.8095864,60.7185717
227,tram_stop,Улица Шевченко,56.8485404,60.6172894
228,tram_stop,Ортопедическое предприятие,56.8514513,60.6162375
229,bus_stop,Краснолесье,56.7809744,60.5427441
230,bus_stop,Огородная,56.902818,60.458753
231,tram_stop,Улица Мира,56.8532126,60.6453036
232,tram_stop,Студенческая улица,56.8581507,60.6556893
233,tram_stop,Станция метро Ботаническая,56.7981955,60.6295291
234,bus_stop,Авиационная,56.8053433,60.6254144
235,bus_stop,Азина,56.8534741,60.6046673
236,bus_stop,Артиллерийский институт,56.7698999,60.669637
237,bus_stop,Архитектурная академия,56.8404104,60.6111367
238,bus_stop,Библиотека им. Белинского,56.8345666,60.6143119
239,bus_stop,Большакова,56.8187521,60.6198758
240,bus_stop,Бородина,56.7546865,60.7027761
241,bus_stop,Проспект Ленина (улица Карла Либкнехта),56.83632,60.6125062
242,bus_stop,ДК Железнодорожников,56.8556028,60.6042083
243,bus_stop,Каменный ручей,56.7764262,60.6640765
244,bus_stop,ДК Химмаш,56.7523827,60.6945037
245,bus_stop,Декабристов,56.8244913,60.6178438
246,bus_stop,Димитрова,56.7467667,60.687034
247,bus_stop,Дом музыки,56.8496328,60.6063889
248,bus_stop,Дом музыки,56.8506072,60.6055561
249,bus_stop,Ж/Д Вокзал,56.8572498,60.6055113
250,bus_stop,Ж/Д Вокзал,56.8572886,60.6068332
251,bus_stop,Инженера Алиева,56.7496945,60.6803447
252,bus_stop,Карла Маркса,56.8312986,60.6158439
253,bus_stop,Куйбышева,56.8279905,60.616623
254,bus_stop,Нижнеисетск,56.7538519,60.6759641
255,bus_stop,Саввы Белых,56.8013067,60.6294935
256,bus_stop,Садовая,56.765725,60.6713329
257,bus_stop,Самолётная (улица Щербакова),56.7927229,60.6429148
258,bus_stop,ТРК Глобус,56.7876186,60.6477187
259,bus_stop,ТЮЗ,56.8466098,60.6091438
260,bus_stop,ТЮЗ,56.8470919,60.6092712
261,bus_stop,Уктус,56.7802899,60.6570585
262,bus_stop,Фрунзе,56.8149378,60.621191
263,bus_stop,Химмаш,56.7612013,60.7019877
264,bus_stop,Улица Шварца,56.7979966,60.6333927
265,bus_stop,Широкий переулок,56.7842452,60.6519508
266,bus_stop,Щорса,56.8109106,60.6226318
267,bus_stop,Авиационная,56.804821,60.6258959
268,bus_stop,Артиллерийский институт,56.7705275,60.6693991
269,bus_stop,Архитектурная академия,56.8410191,60.6107623
270,bus_stop,Бородина,56.7541087,60.7007715
271,bus_stop,Гончарный,56.7835314,60.6526264
272,bus_stop,ДК Химмаш,56.7531493,60.695983
273,bus_stop,Дагестанская,56.7613937,60.7036109
274,bus_stop,Димитрова,56.7467927,60.6887177
275,bus_stop,Инженера Алиева,56.749022,60.6810244
276,bus_stop,Инженерная,56.7568697,60.7077917
277,bus_stop,Косарева,56.7496687,60.6927507
278,bus_stop,Сандуновские бани,56.827976,60.6136255
279,bus_stop,Музей Бажова,56.8181912,60.6131722
280,bus_stop,Нижнеисетск,56.7533573,60.6764898
281,bus_stop,Прониной,56.7730225,60.6679174
282,bus_stop,Проспект Ленина,56.8378173,60.6118128
283,bus_stop,Розы Люксембург,56.8345383,60.6121207
284,bus_stop,Саввы Белых,56.8003214,60.6302073
285,bus_stop,Садовая,56.7650755,60.6717282
286,bus_stop,Самолётная,56.7916957,60.6436655
287,bus_stop,ТРК Глобус,56.7868442,60.6482552
288,bus_stop,Трамвайный парк,56.8145305,60.6145807
289,bus_stop,Федерация профсоюзов,56.8314087,60.6132112
290,bus_stop,Фрунзе,56.8137896,60.6215918
291,bus_stop,Чапаева,56.8229773,60.6113764
292,bus_stop,Улица Шварца,56.797297,60.6356315
293,bus_stop,Щорса,56.8092953,60.623252
294,bus_stop,Восточная автостанция,56.8424993,60.6320577
295,bus_stop,Екатеринбург. Северный автовокзал,56.8575434,60.5980909
296,bus_stop,"ТЦ ""Леруа Мерлен""",56.8020155,60.6484257
297,bus_stop,УрФУ,56.843082,60.6463318
298,bus_stop,Ж/Д Вокзал,56.8575202,60.6068142
299,bus_stop,Краснолесье,56.7809634,60.5430322
300,bus_stop,Учителей,56.8666103,60.6337341
301,bus_stop,Азина,56.8542456,60.6046331
302,bus_stop,улица Викулова,56.8303378,60.5446423
303,bus_stop,улица Викулова,56.8310692,60.5459196
304,bus_stop,улица Викулова,56.8311745,60.5441365
305,bus_stop,Драмтеатр,56.8421525,60.5957425
306,bus_stop,Ельцина,56.8450724,60.5884894
307,bus_stop,Заводская,56.8306112,60.5533633
308,bus_stop,Заводская,56.830765,60.5509831
309,bus_stop,Институт связи,56.8296967,60.5722228
310,tram_stop,улица Металлургов,56.8282925,60.5442678
311,bus_stop,Парк Хаус,56.8619116,60.6325574
312,bus_stop,Парфюмерная фабрика,56.8300971,60.6636708
313,bus_stop,Пионерская,56.8592491,60.6206483
314,bus_stop,Советская,56.8538571,60.6365728
315,bus_stop,Токарей,56.8293334,60.5613295
316,bus_stop,Токарей,56.8299641,60.5631124
317,bus_stop,Токарей,56.8301301,60.5605188
318,bus_stop,Токарей,56.8304693,60.5617413
319,bus_stop,Управление дороги,56.8502985,60.5928557
320,bus_stop,Уралобувь,56.8320339,60.6553373
321,bus_stop,Учителей,56.8573304,60.6310183
322,bus_stop,улица Блюхера,56.8518485,60.6402337
323,bus_stop,Мира,56.8383281,60.652728
324,bus_stop,Первомайская улица,56.8459565,60.6444388
325,bus_stop,Советская,56.854704,60.6356948
326,bus_stop,УрФУ,56.843664,60.6506404
327,bus_stop,Уралобувь,56.8324544,60.6549555
328,bus_stop,Учителей,56.8581355,60.6310883
329,bus_stop,УрФУ,56.8440372,60.6500669
330,bus_stop,Екатеринбург-Пассажирский,56.8597265,60.6039536
331,bus_stop,Станция садоводства,56.7616415,60.6716964
332,bus_stop,Станция садоводства,56.7621739,60.6719609
333,bus_stop,Ботаническая,56.7923721,60.6167168
334,bus_stop,Ботаническая,56.7919548,60.6162744
335,bus_stop,Бульвар Малахова,56.7925115,60.6231546
336,bus_stop,Бульвар Малахова,56.7925213,60.6210101
337,bus_stop,"Гостиница ""Свердловск""",56.8561898,60.6056395
338,bus_stop,Крестинского,56.7942839,60.634778
339,bus_stop,Крестинского,56.7950241,60.6334829
340,bus_stop,Родонитовая,56.7925651,60.6311876
341,bus_stop,Родонитовая,56.7929156,60.6333177
342,bus_stop,Тбилисский бульвар,56.7924655,60.627213
343,bus_stop,Тбилисский бульвар,56.7924558,60.6286233
344,bus_stop,Улица Шварца,56.7973121,60.6334351
345,bus_stop,Кварцевая,56.7810842,60.6307627
346,bus_stop,Кварцевая,56.7817193,60.6314672
347,bus_stop,Межевая,56.7863979,60.6365589
348,bus_stop,Павлодарская,56.7837403,60.6336326
349,bus_stop,Павлодарская,56.7845169,60.6344864
350,bus_stop,Самолётная,56.7898744,60.640317
351,bus_stop,Южный проезд,56.7767501,60.6261809
352,bus_stop,Полянка,56.7797809,60.5457726
353,bus_stop,Полянка,56.7793406,60.5462881
354,bus_stop,Горбольница № 6,56.8071161,60.543141
355,bus_stop,Софьи Ковалевской,56.8467859,60.6553404
356,bus_stop,Академическая,56.8517666,60.6577794
357,bus_stop,Академическая,56.8517692,60.655661
358,bus_stop,Студенческая,56.8504592,60.6615493
359,bus_stop,Блюхера,56.8583925,60.6536748
360,bus_stop,Боровая,56.8611352,60.6476227
361,bus_stop,Данилы Зверева/Сулимова,56.8609335,60.651979
362,bus_stop,Индустрии,56.9054961,60.6137181
363,bus_stop,Калининская,56.8731772,60.6115565
364,bus_stop,Менделеева,56.8618437,60.6380013
365,bus_stop,Парк Хаус,56.8623279,60.6317294
366,bus_stop,Первомайская,56.8480091,60.6624735
367,bus_stop,Техническое училище,56.8686951,60.6118771
368,bus_stop,1-й км,56.862942,60.6122959
369,bus_stop,Данилы Зверева,56.8633256,60.6531535
370,bus_stop,Данилы Зверева,56.8638628,60.653093
371,bus_stop,7-я горбольница,56.8666495,60.6430376
372,bus_stop,Институт связи,56.8288439,60.5696133
373,bus_stop,Екатеринбург. Северный автовокзал,56.8578331,60.5984978
374,bus_stop,ТЦ «Мега»,56.826044,60.500007
375,bus_stop,ТЦ «Мега»,56.8262478,60.5003815
376,bus_stop,Академическая,56.8512173,60.6558569
377,bus_stop,Веер,56.9140902,60.6105522
378,bus_stop,ДК Лаврова,56.8925565,60.6140098
379,bus_stop,Индустрии,56.9057749,60.6134174
380,bus_stop,Калининская,56.872292,60.6111347
381,bus_stop,Ломоносова,56.9113268,60.6122822
382,bus_stop,Метро Уралмаш,56.8864164,60.6137648
383,bus_stop,Парк Хаус,56.8629821,60.6328055
384,bus_stop,"ТК ""Современник""",56.8567466,60.6539937
385,bus_stop,Софьи Ковалевской,56.8465989,60.6536612
386,bus_stop,Техническое училище,56.8676909,60.6114073
387,bus_stop,Фрезеровщиков,56.9000939,60.6141356
388,bus_stop,1-й км,56.8624293,60.611903
389,bus_stop,Посёлок Светлореченский,56.799622,60.4936653
390,tram_stop,Академия при Президенте России,56.8224221,60.604934
391,bus_stop,Переулок Рижский,56.7848489,60.6074533
392,bus_stop,Автовокзал,56.8081201,60.6099106
393,bus_stop,улица Большакова,56.8184237,60.6065554
394,tram_stop,Улица Радищева,56.8307057,60.6002423
395,tram_stop,Гурзуфская улица,56.8261387,60.5745061
396,tram_stop,Юго-Западная,56.827176,60.5788888
397,tram_stop,ВИЗ (Верх-Исетский завод),56.8391166,60.55535
398,tram_stop,Улица Татищева,56.8362062,60.5474713
399,tram_stop,улица Викулова,56.8308577,60.5449089
400,tram_stop,улица Викулова,56.8313904,60.5449619
401,tram_stop,Белореченская улица,56.823243,60.5712221
402,tram_stop,Волгоградская улица,56.8127305,60.5585131
403,tram_stop,Волгоградская улица,56.8130767,60.5582045
404,tram_stop,Волгоградская улица,56.8133755,60.5578333
405,tram_stop,Новомосковская,56.8192429,60.5375558
406,tram_stop,Улица Серафимы Дерябиной,56.8143109,60.5493368
407,bus_stop,ТК Буревестник,56.816374,60.5629714
408,tram_stop,ТК «Буревестник»,56.8164629,60.5628592
409,tram_stop,Улица Плотников,56.8238781,60.5426066
410,bus_stop,ДК Лаврова,56.8939864,60.6144206
411,bus_stop,Метро Уралмаш,56.8880906,60.6137079
412,bus_stop,Ломоносова,56.9104077,60.6125408
413,bus_stop,Радиостанция,56.9227941,60.6127866
414,bus_stop,Союзная,56.9317135,60.6150625
415,bus_stop,Союзная,56.9326135,60.6155568
416,bus_stop,Метро Уралмаш,56.8873334,60.6124731
417,bus_stop,Радиостанция,56.9218434,60.6124294
418,bus_stop,УЗТМ,56.8857363,60.592363
419,bus_stop,Unknown,56.7985925,60.5943752
420,bus_stop,Автовокзал,56.8077561,60.6074719
421,bus_stop,Автовокзал,56.8083719,60.608083
422,bus_stop,Автовокзал,56.8086523,60.6107936
423,bus_stop,Автовокзал,56.8096063,60.6097393
424,bus_stop,Автомобильный колледж,56.8420107,60.6368344
425,bus_stop,Автомобильный колледж,56.8422928,60.6379259
426,bus_stop,Академгородок,56.7678893,60.5480148
427,bus_stop,Академгородок,56.7682843,60.547453
428,bus_stop,Академика Вонсовского,56.7792279,60.5573811
429,bus_stop,Академика Вонсовского,56.7798949,60.558597
430,bus_stop,Амундсена,56.7969556,60.5796459
431,bus_stop,Амундсена,56.7977183,60.5805996
432,bus_stop,Амундсена,56.7978383,60.5790243
433,bus_stop,улица Большакова,56.8172609,60.6067
434,bus_stop,Большакова,56.8179426,60.6078592
435,bus_stop,Волгоградская,56.8010489,60.5848162
436,bus_stop,Волгоградская,56.8021731,60.5862227
437,bus_stop,Восточная,56.8412262,60.6305285
438,bus_stop,Восточная,56.8414898,60.6303303
439,bus_stop,Горный университет,56.8267172,60.5992181
440,tram_stop,Гостиница «Исеть»,56.8420234,60.6196522
441,bus_stop,улица Декабристов,56.82181,60.6050367
442,bus_stop,Екатеринбург. Южный автовокзал,56.808042,60.6119739
443,bus_stop,Екатеринбург. Южный автовокзал,56.8085766,60.6118511
444,bus_stop,Екатерининский привоз,56.7706774,60.5433481
445,bus_stop,Екатерининский привоз,56.7714792,60.5432325
446,bus_stop,Колледж имени Ползунова,56.8378148,60.599646
447,bus_stop,Лесная,56.7727881,60.5456296
448,bus_stop,Лесная,56.7733413,60.5466404
449,bus_stop,Онуфриева,56.7927459,60.5743879
450,bus_stop,Онуфриева,56.7930988,60.5748304
451,bus_stop,Оперный театр,56.8399053,60.6188669
452,bus_stop,Оперный театр,56.8400418,60.6170663
453,bus_stop,Первомайская,56.8420535,60.6329243
454,bus_stop,Площадь Малышева,56.8340434,60.5987703
455,bus_stop,Храм Большой Златоуст,56.8341645,60.6007494
456,bus_stop,Площадь Труда,56.8387849,60.6087746
457,bus_stop,Рабочая,56.775903,60.5513075
458,bus_stop,Рабочая,56.7765524,60.5525006
459,bus_stop,Рабочая,56.7767534,60.5512126
460,bus_stop,Серова,56.8073249,60.5977105
461,bus_stop,Серова,56.8074792,60.5991963
462,bus_stop,Станция метро «Геологическая»,56.8269994,60.60159
463,bus_stop,Станция метро «Площадь 1905 года»,56.8360379,60.5994263
464,bus_stop,"Станция метро ""Площадь 1905 года""",56.836423,60.5992915
465,bus_stop,ТРЦ «Гринвич»,56.8282377,60.6017189
466,bus_stop,УрФУ,56.8424172,60.6455229
467,bus_stop,УрФУ,56.8429782,60.6439508
468,bus_stop,улица Фрунзе,56.8129033,60.6083581
469,bus_stop,улица Фрунзе,56.8143971,60.6080008
470,bus_stop,Цирк,56.8260054,60.6037238
471,bus_stop,Шаумяна,56.8073984,60.5922585
472,bus_stop,Сады,56.7698136,60.7312753
473,bus_stop,Поворот на ЖК Светлый,56.7830358,60.6968663
474,bus_stop,Пионерская,56.8587599,60.6196918
475,tram_stop,Пионерская,56.8595932,60.6190925
476,bus_stop,Проспект Космонавтов,56.8627405,60.6110301
477,bus_stop,Электриков,56.8782026,60.6218863
478,tram_stop,Улица Электриков,56.8782262,60.6206596
479,tram_stop,Турбинный завод,56.8817482,60.6337635
480,tram_stop,Турбинный завод,56.8818959,60.6341012
481,bus_stop,Фронтовых Бригад,56.8830954,60.6374964
482,bus_stop,Фронтовых Бригад,56.8837968,60.6400305
483,bus_stop,Фронтовых Бригад,56.8841616,60.6385591
484,bus_stop,Краснофлотцев,56.8892418,60.6324772
485,tram_stop,Улица Краснофлотцев,56.8898394,60.6319734
486,bus_stop,Краснофлотцев,56.8904562,60.6333171
487,tram_stop,Улица Фрезеровщиков,56.9006299,60.6181232
488,tram_stop,Улица Энтузиастов,56.894601,60.6273006
489,tram_stop,Донская улица,56.896346,60.632443
490,tram_stop,Донская улица,56.8968601,60.6340729
491,tram_stop,Площадь Обороны,56.8226682,60.629649
492,tram_stop,ЦПКиО (Центральный парк культуры и отдыха),56.8184369,60.6386385
493,tram_stop,ЦПКиО (Центральный парк культуры и отдыха),56.8184809,60.6386643
494,tram_stop,ЦПКиО (Центральный парк культуры и отдыха),56.8185342,60.6386802
495,tram_stop,Улица Декабристов,56.8246066,60.6263283
496,bus_stop,Луначарского,56.8248199,60.6251295
497,bus_stop,Луначарского,56.8249883,60.6268097
498,bus_stop,Телестудия,56.8283196,60.624748
499,bus_stop,Дом Кино,56.8361764,60.6213166
500,bus_stop,Белинского,56.8287134,60.6180591
501,tram_stop,Управление Cвердловской железной дороги,56.8514897,60.5944448
502,tram_stop,Улица Папанина,56.8428644,60.5828354
503,tram_stop,Улица Папанина,56.8432656,60.5833152
504,bus_stop,Площадь Коммунаров,56.8362245,60.5808627
505,bus_stop,ТЦ «Алатырь»,56.8320155,60.5823874
506,bus_stop,ТЦ «Алатырь»,56.8321827,60.5842439
507,tram_stop,Посадская улица,56.8183611,60.5885162
508,bus_stop,Сахалинская,56.8617766,60.6629533
509,tram_stop,Улица Кузнецова,56.887367,60.6078773
510,bus_stop,Сады,56.8326269,60.3344467
511,bus_stop,Баумана,56.8971444,60.6410658
512,bus_stop,Турбинный завод,56.8817986,60.6341162
513,bus_stop,Красных командиров,56.900933,60.6367955
514,bus_stop,Спортивная,56.8941273,60.6415213
515,bus_stop,Таганская,56.905569,60.6333351
516,bus_stop,Шефская,56.8920452,60.6380408
517,bus_stop,Войкова,56.9022615,60.6352831
518,bus_stop,Турбинный завод,56.8817278,60.6333729
519,bus_stop,Красных командиров,56.898309,60.6397368
520,bus_stop,Таганская,56.9049629,60.6321914
521,bus_stop,Шефская,56.891316,60.6358538
522,bus_stop,Unknown,56.7645147,60.5909064
523,tram_stop,Улица Кирова,56.8412266,60.5616581
524,bus_stop,Педуниверситет,56.8787834,60.6106869
525,tram_stop,"ТРЦ ""Карнавал""",56.852516,60.552975
526,tram_stop,Таганский ряд,56.861057,60.5485054
527,tram_stop,Улица Бебеля,56.8652294,60.5496496
528,tram_stop,Улица Бебеля,56.8658353,60.5495303
529,tram_stop,Улица Сварщиков,56.8803319,60.5585519
530,tram_stop,Улица Лукиных,56.8830953,60.5613563
531,tram_stop,Улица Лукиных,56.88414,60.562529
532,tram_stop,ДК ВОС (Дом культуры Всероссийского общества слепых),56.8645947,60.5370305
533,tram_stop,Техническая улица,56.866163,60.5325887
534,tram_stop,Улица Ватутина,56.8714848,60.5206839
535,tram_stop,Кишинёвская улица,56.8789338,60.5095593
536,tram_stop,Дружининская улица,56.8813445,60.5037108
537,tram_stop,Библиотека,56.8875941,60.566216
538,tram_stop,Донбасская улица,56.89049,60.5693562
539,tram_stop,Донбасская улица,56.8909396,60.5697411
540,tram_stop,Расточная улица,56.877465,60.5131321
541,tram_stop,Улица 40-летия ВЛКСМ,56.8347599,60.6916964
542,tram_stop,Улица 40-летия ВЛКСМ,56.8348025,60.6916909
543,bus_stop,Сосновый бор,56.7812391,60.6815957
544,bus_stop,Лечебный,56.7949079,60.7274359
545,bus_stop,Лечебный,56.7949077,60.7276623
546,bus_stop,Исток,56.7874296,60.7880474
547,tram_stop,Слесарей,56.8395255,60.5582963
548,bus_stop,Лесничество,56.7768571,60.8014426
549,bus_stop,Улица Трактовая,56.7793104,60.7950476
550,bus_stop,Улица Трактовая,56.7794067,60.7951473
551,bus_stop,Союз,56.8090014,60.7668033
552,bus_stop,Екатеринбург. Северный автовокзал,56.8582675,60.5992254
553,bus_stop,База ОМОН,56.8318677,60.5178757
554,tram_stop,Теплоходный проезд,56.8635168,60.5401454
555,bus_stop,Белая башня,56.8937454,60.5713619
556,bus_stop,Гора Хрустальная,56.8311499,60.3936379
557,bus_stop,Гора Хрустальная,56.8312832,60.3893369
558,bus_stop,ЖБИ,56.8289659,60.6935623
559,bus_stop,Заводоуправление,56.8338588,60.6943073
560,bus_stop,Заводоуправление,56.8340984,60.6943437
561,bus_stop,Супермаркет Кировский,56.8351372,60.6851693
562,bus_stop,Супермаркет Кировский,56.8351739,60.6842243
563,bus_stop,Профессорская,56.8406415,60.6518237
564,bus_stop,Комсомольская,56.841142,60.6589221
565,bus_stop,Комсомольская,56.8411772,60.6604603
566,bus_stop,Высоцкого,56.8429215,60.6862461
567,bus_stop,ЖБИ,56.8261861,60.6885728
568,bus_stop,Каменные палатки,56.8412695,60.6788337
569,bus_stop,Комсомольский микрорайон,56.8273598,60.6828986
570,bus_stop,Комсомольский микрорайон,56.8276831,60.6825082
571,bus_stop,Медицинский колледж,56.8281141,60.6828324
572,bus_stop,Новгородцевой,56.8343491,60.6705764
573,bus_stop,Новгородцевой,56.841289,60.6729516
574,bus_stop,Развилки,56.8391535,60.6692969
575,bus_stop,Развилки,56.8392639,60.6687906
576,bus_stop,Школа,56.8315122,60.6771442
577,bus_stop,Профессорская,56.8401911,60.6506765
578,bus_stop,Бульвар Малахова,56.7959448,60.6216549
579,bus_stop,Ж/Д Вокзал,56.8569548,60.6081912
580,bus_stop,Молодогвардейцев,56.7841172,60.667478
581,bus_stop,Самоцветный бульвар,56.7959657,60.614949
582,bus_stop,"ТЦ ""Дирижабль""",56.7962792,60.6282257
583,bus_stop,Уральская,56.8609378,60.6239554
584,bus_stop,Филармония,56.8426946,60.6101634
585,bus_stop,Щербакова,56.781641,60.6565259
586,bus_stop,Южная,56.8007235,60.6120916
587,bus_stop,Станция Исток,56.7885008,60.7897909
588,bus_stop,"Метро ""Ботаническая""",56.7972526,60.6310574
589,bus_stop,Бухара-Урал,56.8016438,60.7798516
590,bus_stop,ДК Гагарина,56.8249467,60.6459552
591,bus_stop,Завод ЖБИ,56.8238481,60.6962729
592,bus_stop,Парфюмерная фабрика,56.8287242,60.6634178
593,bus_stop,Поворот на Исток,56.7719768,60.8713897
594,bus_stop,Посёлок Кольцово,56.7740367,60.8173795
595,bus_stop,Реактивная,56.7755219,60.8331847
596,bus_stop,Тубсанаторий,56.8171746,60.7310628
597,bus_stop,Шарташский рынок,56.8302289,60.6361341
598,bus_stop,Энгельса,56.8352803,60.6343443
599,bus_stop,Боровая,56.8610056,60.6496676
600,bus_stop,Бухара-Урал,56.8017601,60.7799515
601,bus_stop,ДК Гагарина,56.8251603,60.6448819
602,bus_stop,Завод ЖБИ,56.8240444,60.696154
603,bus_stop,Малышева,56.8381849,60.6332979
604,bus_stop,Поворот на Исток,56.7712339,60.8695361
605,bus_stop,Посёлок Кольцово,56.7739241,60.8164053
606,bus_stop,Сибирский тракт,56.8271126,60.6375953
607,bus_stop,ТЦ Восточный,56.8341942,60.6347604
608,bus_stop,Шарташский рынок,56.8292485,60.6367359
609,bus_stop,Дачная,56.8721386,60.6850381
610,bus_stop,Дачная,56.8724886,60.6857897
611,bus_stop,Норильская,56.8821745,60.6951141
612,bus_stop,Поворот на Изоплит,56.8848637,60.7221717
613,bus_stop,Поворот на Изоплит,56.885449,60.7241292
614,bus_stop,Поворот на Изоплит,56.8854702,60.7226347
615,bus_stop,Посёлок Калиновский,56.9049228,60.7236877
616,bus_stop,Проезжая,56.8748915,60.6899346
617,bus_stop,Проезжая,56.8755511,60.6909652
618,bus_stop,Рыбаков,56.8841058,60.7123302
619,bus_stop,Рыбаков,56.8841124,60.7170196
620,bus_stop,Блюхера,56.8573194,60.657646
621,bus_stop,"Центр культуры ""Урал""",56.8548611,60.6598725
622,bus_stop,Магазин,56.8767331,60.7353608
623,bus_stop,Магазин,56.8770817,60.7354607
624,bus_stop,Ясли,56.8695698,60.7346125
625,bus_stop,Ясли,56.8699926,60.7341018
626,bus_stop,Академический микрорайон,56.7927684,60.5220552
627,bus_stop,Академический микрорайон,56.7929169,60.520932
628,bus_stop,Академический микрорайон,56.7934768,60.5222676
629,bus_stop,Барвинка,56.784652,60.5370219
630,bus_stop,Барвинка,56.7850318,60.5360033
631,bus_stop,Бардина,56.8036691,60.5635313
632,bus_stop,Бардина,56.8047882,60.5605713
633,bus_stop,Павла Шаманова,56.7898233,60.5155326
634,bus_stop,Горбольница № 6,56.807155,60.5429324
635,bus_stop,Двинская,56.7880126,60.53065
636,bus_stop,Двинская,56.7880864,60.5296043
637,bus_stop,Двинская,56.7887434,60.529659
638,bus_stop,Микрохирургия глаза,56.8091647,60.5489613
639,bus_stop,Микрохирургия глаза,56.8093166,60.5485634
640,bus_stop,Решетникова,56.7992571,60.5752255
641,bus_stop,Решетникова,56.7998211,60.5737346
642,bus_stop,Чкалова,56.801891,60.5683014
643,bus_stop,Чкалова,56.8025262,60.56662
644,bus_stop,Чкалова/Краснолесья,56.7827979,60.5400454
645,bus_stop,Ясная,56.8063421,60.5563894
646,bus_stop,Ясная,56.8064955,60.555984
647,bus_stop,Чапаевская,56.8093751,60.718397
648,bus_stop,Екатеринбург-Пассажирский,56.8588477,60.6058692
649,bus_stop,Екатеринбург-Пассажирский,56.8589736,60.6058617
650,bus_stop,Екатеринбург-Пассажирский,56.8591322,60.6058522
651,bus_stop,Екатеринбург-Пассажирский,56.8591788,60.6058494
652,bus_stop,Екатеринбург-Пассажирский,56.859298,60.6058423
653,bus_stop,Екатеринбург-Пассажирский,56.8593494,60.6058392
654,bus_stop,Екатеринбург-Пассажирский,56.8598836,60.6039776
655,bus_stop,Посёлок Широкая речка (поворот),56.6727288,60.4662186
656,bus_stop,Посёлок Широкая Речка (поворот),56.6728745,60.466597
657,bus_stop,Зелёный бор,56.7129933,60.5125033
658,bus_stop,Посёлок Полеводство,56.704686,60.5601803
659,bus_stop,Посёлок Полеводство,56.7044402,60.5596424
660,bus_stop,"Сад ""Родничок""",56.7085392,60.5686547
661,bus_stop,Сады,56.738308,60.5993689
662,bus_stop,Сады,56.738437,60.5994855
663,bus_stop,Ангарская,56.8884044,60.5033514
664,bus_stop,Ангарская,56.8885212,60.5035204
665,bus_stop,Белякова,56.8923853,60.4882159
666,bus_stop,Билимбаевская,56.8816163,60.517531
667,bus_stop,Ватутина,56.8708817,60.520837
668,bus_stop,Ватутина,56.8722249,60.5200745
669,bus_stop,Вокзальная,56.8572164,60.59978
670,bus_stop,ДК ВОС,56.8641639,60.5377928
671,bus_stop,ДК ВОС,56.8645016,60.5368223
672,bus_stop,ДМБ № 9,56.8934989,60.4847899
673,bus_stop,Заречный,56.8568693,60.5534143
674,bus_stop,Кунарская,56.8779168,60.5135406
675,bus_stop,Кунарская,56.878284,60.5140354
676,bus_stop,Маневровая,56.8745245,60.5171296
677,bus_stop,Матросская,56.887107,60.490603
678,bus_stop,Матросская,56.887892,60.4897309
679,bus_stop,Стрелочников,56.8559376,60.5851497
680,bus_stop,Стрелочников,56.8561515,60.586663
681,bus_stop,Теплоходный проезд,56.863012,60.5411398
682,bus_stop,Теплоходный проезд,56.8634478,60.5398435
683,bus_stop,Техническая,56.8657864,60.5331451
684,bus_stop,Техническая,56.8661237,60.5322062
685,bus_stop,Железнодорожный техникум,56.8840023,60.5122254
686,bus_stop,Железнодорожный техникум,56.8848334,60.5102211
687,bus_stop,Трамвайное кольцо,56.8845421,60.4979318
688,bus_stop,Трамвайное кольцо,56.8848391,60.4983118
689,bus_stop,Хладокомбинат № 3,56.8887805,60.5066579
690,bus_stop,Черепанова,56.85755,60.5641291
691,bus_stop,Черепанова,56.8575725,60.5661618
692,bus_stop,3-го Интернационала,56.8565569,60.5733029
693,bus_stop,3-го Интернационала,56.8569751,60.5715503
694,bus_stop,Белякова,56.8906981,60.4879313
695,bus_stop,Полюсная,56.89028,60.4823214
696,bus_stop,Полюсная,56.8903537,60.4833522
697,bus_stop,Посёлок 7 ключей,56.889759,60.4751496
698,bus_stop,Билимбаевская,56.8806834,60.5173186
699,bus_stop,Вокзальная,56.8573143,60.5977565
700,bus_stop,Горького,56.83504,60.6081492
701,bus_stop,Автопредприятие,56.8851271,60.53203
702,bus_stop,Монтажников,56.8870058,60.5261285
703,bus_stop,Монтажников,56.8871814,60.5275538
704,bus_stop,Уралтехгаз,56.8828445,60.5363803
705,tram_stop,Маневровая улица,56.8740237,60.5177905
706,bus_stop,3-го Интернационала,56.855561,60.5746373
707,bus_stop,3-го Интернационала,56.8556269,60.5747159
708,bus_stop,Университет путей сообщения,56.8516138,60.5698657
709,bus_stop,Университет путей сообщения,56.8523911,60.5708131
710,bus_stop,Юридическая академия,56.8486612,60.5663421
711,bus_stop,Бебеля,56.8542635,60.5611965
712,bus_stop,Бебеля,56.8543448,60.5593949
713,bus_stop,Заречный,56.8545113,60.5536424
714,bus_stop,Заречный,56.8553548,60.5529134
715,bus_stop,Пехотинцев,56.8699536,60.5526153
716,bus_stop,Школа,56.8663376,60.5611917
717,bus_stop,Школа,56.8670772,60.5586808
718,bus_stop,Центр культуры «Стрела»,56.8634182,60.5746123
719,bus_stop,Центр культуры «Стрела»,56.8634596,60.5757192
720,bus_stop,Звезда,56.8666798,60.5829544
721,bus_stop,Звезда,56.8672513,60.5835912
722,bus_stop,Автоколонна,56.8668746,60.5912163
723,bus_stop,Автоколонна,56.866872,60.590789
724,bus_stop,Хладокомбинат «Норд»,56.8635055,60.6014841
725,bus_stop,Хладокомбинат «Норд»,56.8637433,60.6000551
726,bus_stop,Проспект Космонавтов,56.8599747,60.6119497
727,bus_stop,"Фабрика ""Авангард""",56.8678022,60.653037
728,bus_stop,Комсомольская,56.8474718,60.6572401
729,bus_stop,Ювелирная,56.7920563,60.6054841
730,bus_stop,Ювелирная,56.793037,60.6065785
731,bus_stop,Переулок Рижский,56.7858018,60.6068689
732,bus_stop,Военная,56.7834652,60.6088084
733,bus_stop,Сухоложская,56.7755358,60.6124659
734,bus_stop,Сухоложская,56.7763437,60.612122
735,bus_stop,Вторчермет,56.7694897,60.6147352
736,bus_stop,Вторчермет,56.7696357,60.6146935
737,bus_stop,Новинская,56.766564,60.6282588
738,bus_stop,Новинская,56.7672195,60.6271049
739,bus_stop,Новинская,56.7683034,60.6284322
740,bus_stop,Свердлесмаш,56.7600947,60.6271793
741,bus_stop,Свердлесмаш,56.7606909,60.6272841
742,bus_stop,Звонкий,56.7497813,60.6194655
743,bus_stop,Звонкий,56.7508169,60.6204927
744,bus_stop,Лифтостроительный завод,56.7531215,60.6227889
745,bus_stop,Лифтостроительный завод,56.7539485,60.6236037
746,bus_stop,Новопашинский переулок,56.7460743,60.615305
747,bus_stop,Новопашинский переулок,56.7467527,60.6161421
748,bus_stop,Центр культуры,56.7432746,60.6114992
749,bus_stop,Центр культуры,56.7442172,60.6128774
750,bus_stop,Елизавет,56.7393387,60.6074846
751,bus_stop,Елизавет,56.740193,60.6067318
752,bus_stop,Площадь Труда,56.8389157,60.6081993
753,bus_stop,Южная,56.7994399,60.6129888
754,bus_stop,Проспект Космонавтов,56.8706648,60.6098501
755,bus_stop,Проспект Космонавтов,56.8706858,60.6102035
756,bus_stop,Артинская,56.8699508,60.5975919
757,bus_stop,Артинская,56.8699672,60.597842
758,bus_stop,ВИЗ,56.8392395,60.5538234
759,bus_stop,Венгерских Коммунаров,56.8328373,60.552357
760,bus_stop,Детский центр,56.8274148,60.5338581
761,bus_stop,Новомосковский тракт,56.8276211,60.5309576
762,bus_stop,ТЦ «Мега»,56.8248606,60.5037703
763,bus_stop,ТЦ «Мега»,56.8248027,60.5085896
764,bus_stop,"ТК ""Новомосковский""",56.8274968,60.5200141
765,bus_stop,Уралкабель,56.8346801,60.5618098
766,bus_stop,Уралкабель,56.8361641,60.5621961
767,bus_stop,Готвальда,56.8470044,60.562734
768,bus_stop,Шувакишская,56.8960316,60.50228
769,bus_stop,Таганский ряд,56.8606698,60.5512825
770,bus_stop,Пехотинцев,56.8704449,60.5493917
771,bus_stop,Автомагистральная,56.8746923,60.5529491
772,bus_stop,Автомагистральная,56.8753655,60.5532778
773,bus_stop,Сварщиков,56.8794598,60.5578574
774,bus_stop,Сварщиков,56.8798681,60.5579408
775,bus_stop,Донбасская,56.8820545,60.5602
776,bus_stop,Диагностический центр,56.8841487,60.5708403
777,bus_stop,Диагностический центр,56.8841806,60.5696155
778,bus_stop,40 лет Октября,56.8846956,60.5760422
779,bus_stop,40 лет Октября,56.8847863,60.5788949
780,bus_stop,Машиностроителей,56.8853007,60.585001
781,bus_stop,Церковь Рождества Христова,56.8854835,60.5859016
782,bus_stop,Кинотеатр Заря,56.8875761,60.6156339
783,bus_stop,Бабушкина,56.8894111,60.6205822
784,bus_stop,Бабушкина,56.8896588,60.6217986
785,bus_stop,ДК УЭТМ,56.8915546,60.6269275
786,bus_stop,ДК УЭТМ,56.8918334,60.6295428
787,bus_stop,Таганская,56.9049767,60.6310371
788,bus_stop,Шефская,56.9022124,60.6237385
789,bus_stop,Шефская,56.9028591,60.6256652
790,bus_stop,Фрезеровщиков,56.9008888,60.6183164
791,bus_stop,Старых большевиков,56.9011329,60.6204942
792,bus_stop,Энтузиастов,56.8939653,60.6271584
793,bus_stop,Заречный,56.8575293,60.5521315
794,bus_stop,Лукиных,56.8841889,60.5627016
795,bus_stop,Таватуйская,56.8669174,60.5461884
796,bus_stop,Таватуйская,56.8674954,60.5448078
797,bus_stop,Теплоходный проезд,56.8636631,60.5407312
798,bus_stop,Донбасская улица,56.890593,60.5692275
799,bus_stop,Донбасская улица,56.8908981,60.5699171
800,bus_stop,Индустрии,56.8994685,60.5980057
801,bus_stop,Индустрии,56.89892,60.5989515
802,bus_stop,Ильича,56.8999686,60.6102911
803,bus_stop,Проспект Космонавтов,56.900558,60.613345
804,bus_stop,Проспект Космонавтов,56.900842,60.6155376
805,bus_stop,Электроремонтная,56.8840708,60.6456737
806,bus_stop,Электроремонтная,56.8847903,60.6448501
807,bus_stop,Шефская,56.8798564,60.6504507
808,bus_stop,Шефская,56.8801977,60.6500588
809,bus_stop,Эльмашевский рынок,56.8746454,60.6589788
810,bus_stop,Эльмашевский рынок,56.8754238,60.6576345
811,bus_stop,Северный терминал,56.8690462,60.6687081
812,bus_stop,Дом отдыха Шарташ,56.853978,60.6732717
813,bus_stop,Дом отдыха Шарташ,56.8546673,60.6733913
814,bus_stop,Строительный двор,56.8711846,60.6650442
815,bus_stop,Строительный двор,56.8721384,60.6633698
816,bus_stop,Госпиталь ВОВ,56.8093795,60.5075103
817,bus_stop,Госпиталь ВОВ,56.8106575,60.5087664
818,bus_stop,Улица Соболева,56.8057589,60.5046642
819,bus_stop,Улица Соболева,56.8061414,60.5049737
820,bus_stop,Контрольная,56.8161598,60.523363
821,bus_stop,Контрольная,56.8167266,60.5219816
822,bus_stop,Отрадная,56.8175693,60.533009
823,bus_stop,Новомосковская,56.8188968,60.5375305
824,bus_stop,Новомосковская,56.8192975,60.5389062
825,bus_stop,Зоологическая,56.8140325,60.5359024
826,bus_stop,Зоологическая,56.8141053,60.534745
827,bus_stop,АТП,56.8113582,60.5430969
828,bus_stop,АТП,56.8114958,60.542709
829,bus_stop,Аэроагентство,56.817151,60.6038711
830,bus_stop,Музей Бажова,56.8184452,60.6122527
831,bus_stop,Музей Бажова,56.8186677,60.6142575
832,bus_stop,Белинского,56.8239507,60.6171416
833,bus_stop,Белинского,56.824153,60.6190329
834,bus_stop,Гимназия Корифей,56.8283218,60.6701
835,bus_stop,Гимназия Корифей,56.8286825,60.6685998
836,bus_stop,Байкальская,56.8288967,60.6644276
837,bus_stop,Бычковой,56.8280928,60.674977
838,bus_stop,Бычковой,56.8281594,60.6731791
839,bus_stop,Есенина,56.8251779,60.6806525
840,bus_stop,Есенина,56.8259333,60.6808398
841,bus_stop,Синие Камни,56.8239388,60.6746095
842,bus_stop,Сибирский тракт,56.8260381,60.6368766
843,bus_stop,Кирова,56.8397408,60.5641551
844,tram_stop,Верх-Исетский бульвар,56.8379533,60.5760698
845,bus_stop,Маршала Жукова,56.8370948,60.590304
846,bus_stop,Переулок Базовый,56.8051488,60.6461234
847,bus_stop,"ТЦ ""Дирижабль""",56.7965423,60.6294953
848,bus_stop,Южная,56.799704,60.6129957
849,bus_stop,Бульвар Малахова,56.7959601,60.6194497
850,bus_stop,Самоцветный бульвар,56.7959522,60.6133459
851,bus_stop,Автовокзал,56.8068874,60.6108362
852,bus_stop,Ботаническая,56.79253,60.616447
853,bus_stop,Ботаническая,56.7926348,60.615564
854,bus_stop,Самоцветный бульвар,56.7954414,60.6142627
855,bus_stop,Таганский ряд,56.8610465,60.5503988
856,bus_stop,Поликлиника,56.7615443,60.612024
857,bus_stop,Поликлиника,56.7623323,60.6123574
858,bus_stop,Общежитие,56.7562146,60.6098409
859,bus_stop,Общежитие,56.756377,60.6099056
860,bus_stop,Станция Керамик,56.749475,60.6075226
861,bus_stop,Станция Керамик,56.7498723,60.6076658
862,bus_stop,Южная подстанция,56.7472552,60.6065855
863,bus_stop,Поворот на Зеленый бор,56.7007772,60.5091987
864,bus_stop,Поворот на Зеленый бор,56.7009142,60.508941
865,bus_stop,Зелёный бор-2,56.7150685,60.4765813
866,bus_stop,Зелёный бор-2,56.7150205,60.4770743
867,bus_stop,Шиловский кордон,56.7215848,60.430483
868,bus_stop,Шиловский кордон,56.7216093,60.4297164
869,bus_stop,Южный проезд,56.7773845,60.6268445
870,bus_stop,Московская (улица Фурманова),56.814293,60.5924247
871,bus_stop,Серова,56.8145863,60.5956784
872,bus_stop,Дворец Спорта,56.8160852,60.5908282
873,bus_stop,Дворец Спорта,56.8162721,60.5933251
874,bus_stop,ТРЦ ФанФан,56.8180177,60.5829874
875,bus_stop,ТРЦ ФанФан,56.8181348,60.5839078
876,bus_stop,Посадская,56.8204789,60.5761806
877,bus_stop,Посадская,56.8208023,60.5766755
878,bus_stop,Посадская,56.8209386,60.5749055
879,bus_stop,Белореченская,56.8222299,60.5728185
880,bus_stop,Белореченская,56.8223208,60.5712711
881,bus_stop,Белореченская,56.8209291,60.5682807
882,bus_stop,ТК Буревестник,56.8173229,60.562634
883,bus_stop,ТК Буревестник,56.817922,60.5648909
884,bus_stop,Улица Ухтомская,56.8174357,60.5419804
885,bus_stop,Новомосковская,56.8188006,60.5390084
886,bus_stop,Московская,56.8139176,60.5887853
887,bus_stop,Чкалова,56.8110665,60.5796962
888,bus_stop,Чкалова,56.8118014,60.5798037
889,bus_stop,Чкалова,56.8118311,60.5776372
890,bus_stop,Хасановская,56.8090516,60.5850479
891,bus_stop,Хасановская,56.8093288,60.5843114
892,bus_stop,Каменные палатки,56.8413952,60.6787796
893,bus_stop,Сыромолотова,56.8375052,60.6803502
894,bus_stop,Сыромолотова,56.8377681,60.6802294
895,bus_stop,40 лет ВЛКСМ,56.8243119,60.6993573
896,bus_stop,КОР,56.8425588,60.6956734
897,bus_stop,Профессорская,56.8403704,60.65342
898,bus_stop,Гагарина,56.8393316,60.6433184
899,bus_stop,Гагарина,56.8393363,60.6441739
900,bus_stop,Генеральская,56.8385783,60.6367171
901,bus_stop,Генеральская,56.8386861,60.6384436
902,bus_stop,Трансагентство,56.8374465,60.6319298
903,bus_stop,Трансагентство,56.8375281,60.6318679
904,bus_stop,Поликлиника,56.7624527,60.7143468
905,bus_stop,Дом Кино,56.8361738,60.6205738
906,bus_stop,Гостиница «Центральная»,56.835253,60.6107235
907,bus_stop,Театр Волхонка,56.8329904,60.5906281
908,bus_stop,Театр Волхонка,56.8331587,60.5914561
909,bus_stop,Центральный стадион,56.831092,60.5755493
910,bus_stop,Институт связи,56.8296217,60.568312
911,bus_stop,Крауля (улица Рабочих),56.8317157,60.5360307
912,bus_stop,Крауля (улица Рабочих),56.8318352,60.5343673
913,bus_stop,Крауля,56.8317129,60.5316807
914,bus_stop,База ОМОН,56.8321351,60.5186423
915,bus_stop,Горный университет,56.8265598,60.5977341
916,bus_stop,Сакко и Ванцетти,56.826054,60.5928204
917,bus_stop,Московская горка,56.8234639,60.5866162
918,bus_stop,Московская горка,56.8247179,60.5858638
919,bus_stop,Посадская,56.821493,60.5768138
920,bus_stop,Посадская,56.8217575,60.5771813
921,bus_stop,Черкасская,56.8189284,60.55832
922,bus_stop,Черкасская,56.8197279,60.5561585
923,bus_stop,Начдива Васильева,56.8230358,60.5472395
924,bus_stop,Начдива Васильева,56.8237248,60.547954
925,bus_stop,Черкасская,56.8202144,60.5548087
926,bus_stop,Павла Шаманова,56.7948429,60.5072881
927,bus_stop,Академический микрорайон,56.793568,60.5208813
928,bus_stop,УрФУ,56.843157,60.6508535
929,bus_stop,Медгородок,56.8116501,60.559662
930,bus_stop,Медгородок,56.811834,60.5591756
931,bus_stop,Ясная,56.8059615,60.5595519
932,bus_stop,Павла Шаманова,56.789284,60.5142119
933,bus_stop,Сахарова,56.7881926,60.5124911
934,bus_stop,Репина,56.8251177,60.5512777
935,bus_stop,Палкинский торфяник,56.8581045,60.3759266
936,bus_stop,Кольцевая автодорога,56.8135334,60.5168991
937,bus_stop,Лесхоз,56.8219508,60.499671
938,bus_stop,Западная фильтровальная станция,56.8280192,60.4639068
939,bus_stop,Западная фильтровальная станция,56.8279699,60.4644911
940,bus_stop,11 км,56.8295997,60.4542344
941,bus_stop,11 км,56.8296102,60.4543967
942,bus_stop,Стрельбище «Динамо»,56.8311959,60.4442315
943,bus_stop,Лесхоз,56.8214029,60.5004836
944,bus_stop,"Сад ""Юг""",56.816898,60.5101158
945,bus_stop,Пост ГАИ,56.8264092,60.4794327
946,bus_stop,Пост ГАИ,56.826474,60.478953
947,bus_stop,Дружининская,56.8815724,60.503259
948,bus_stop,Кишиневская,56.8791275,60.5091798
949,bus_stop,Расточная,56.8776619,60.5127733
950,bus_stop,Проспект Седова,56.8721748,60.5254554
951,bus_stop,Сортировочная,56.8703047,60.5300341
952,bus_stop,Надеждинская,56.8693906,60.540105
953,bus_stop,Надеждинская,56.8703292,60.5378209
954,bus_stop,Билимбаевская,56.8808487,60.518706
955,bus_stop,Станция Шарташ,56.829194,60.6474467
956,bus_stop,Комсомольская,56.8241246,60.6572664
957,bus_stop,Техническая,56.8664259,60.5321345
958,bus_stop,Школа им. С.В. Рахманинова,56.8684991,60.5271109
959,bus_stop,Белякова,56.890714,60.4881689
960,bus_stop,Посёлок 7 ключей,56.8897436,60.4749317
961,bus_stop,Керамическая,56.7567591,60.5958362
962,bus_stop,Керамическая,56.7567944,60.5954095
963,bus_stop,2-я Новосибирская,56.7587931,60.5878047
964,bus_stop,Онуфриева,56.7982596,60.5624022
965,bus_stop,Управление дороги,56.8519505,60.5948634
966,bus_stop,Ельцина,56.8450446,60.587964
967,bus_stop,Драмтеатр,56.840187,60.5979668
968,bus_stop,Июльская,56.8587217,60.6458602
969,bus_stop,Площадь 1905 года,56.8375442,60.5955545
970,bus_stop,Каменный карьер,56.8159767,60.6811847
971,bus_stop,Каменный карьер,56.8161832,60.680516
972,bus_stop,Лесопарк,56.8183221,60.6683163
973,bus_stop,Лесотехнический университет,56.8210181,60.6613351
974,bus_stop,Лесотехнический университет,56.8212449,60.6607536
975,bus_stop,Академическая,56.8513459,60.6538305
976,bus_stop,Июльская,56.8579079,60.6441551
977,bus_stop,Менделеева,56.8617493,60.6392548
978,bus_stop,Мира,56.8508209,60.649356
979,bus_stop,Парк Хаус,56.8622087,60.6330409
980,bus_stop,Парковый,56.8560966,60.6404645
981,bus_stop,Парковый,56.8566748,60.6416602
982,bus_stop,Сулимова,56.8606647,60.6486806
983,bus_stop,Уральская,56.8545483,60.6370961
984,bus_stop,Московская горка,56.8250777,60.583402
985,bus_stop,Магазин «Кооператор»,56.8249798,60.5763235
986,bus_stop,Цирк,56.8272386,60.6043504
987,bus_stop,Лесопарк,56.8174679,60.6712733
988,bus_stop,Станция Путевка,56.8127493,60.6936599
989,bus_stop,Станция Путевка,56.8127616,60.6940303
990,bus_stop,Психбольница,56.8107786,60.708088
991,bus_stop,Психбольница,56.810934,60.7069394
992,bus_stop,10-й км,56.7947208,60.7259283
993,bus_stop,Тубсанаторий,56.8094784,60.7156468
994,bus_stop,Тубсанаторий,56.8097546,60.714404
995,bus_stop,Чапаева,56.8056361,60.7226236
996,bus_stop,Чапаева,56.8056813,60.7225863
997,bus_stop,Станция Лечебная,56.7996591,60.7270936
998,bus_stop,Станция Лечебная,56.800125,60.7270099
999,bus_stop,11-й км,56.7889996,60.7296487
1000,bus_stop,11-й км,56.7895601,60.7293543
1001,bus_stop,Птицефабрика,56.7844147,60.7383507
1002,bus_stop,Птицефабрика,56.7847059,60.7372903
1003,bus_stop,12-й км,56.7862209,60.7519589
1004,bus_stop,12-й км,56.7864233,60.753093
1005,bus_stop,13-й км,56.7862964,60.7674624
1006,bus_stop,13-й км,56.7862964,60.7678075
1007,bus_stop,14-й км,56.7853517,60.7739346
1008,bus_stop,14-й км,56.785449,60.7736232
1009,bus_stop,Октябрьская,56.7832893,60.7819146
1010,bus_stop,Октябрьская,56.7833656,60.7811774
1011,bus_stop,Сад «Рябинушка»,56.7785655,60.7899308
1012,bus_stop,Сад «Рябинушка»,56.7787089,60.7896763
1013,bus_stop,Сады,56.7723818,60.7906444
1014,bus_stop,Сады,56.7733262,60.7908729
1015,bus_stop,"Сад ""Авиаторов-5""",56.7675543,60.789349
1016,bus_stop,"Сад ""Авиаторов-5""",56.7679374,60.7894469
1017,bus_stop,Бахчиванджи,56.7520974,60.8167579
1018,bus_stop,Бахчиванджи,56.7520923,60.8159787
1019,bus_stop,Улица Бахчиванджи,56.7622625,60.8162393
1020,bus_stop,Авиагородок,56.7570791,60.8190903
1021,bus_stop,Авиагородок,56.757496,60.8192225
1022,bus_stop,Станция Кольцово,56.7602841,60.820214
1023,bus_stop,Станция Кольцово,56.7603851,60.8195195
1024,bus_stop,"РП ""Докер""",56.7628561,60.8073582
1025,bus_stop,Большая поляна,56.8099302,60.7621088
1026,bus_stop,Ново-Свердловская ТЭЦ,56.8362394,60.8491899
1027,bus_stop,Посёлок Пески,56.8447919,60.7041854
1028,bus_stop,Развилки,56.8444338,60.7246801
1029,bus_stop,Сад «Вирусолог»,56.8354549,60.8388056
1030,bus_stop,Сад «Орбита»,56.8392761,60.8111959
1031,bus_stop,Сад «Орбита»,56.839275,60.8118102
1032,bus_stop,Unknown,56.8392776,60.8048881
1033,bus_stop,Unknown,56.8392856,60.8037644
1034,bus_stop,Unknown,56.8392965,60.7957409
1035,bus_stop,Unknown,56.8392966,60.7947661
1036,bus_stop,Росинка-2,56.839301,60.7877416
1037,bus_stop,Unknown,56.8393091,60.7866567
1038,bus_stop,Сады,56.8396074,60.7629412
1039,bus_stop,Сады,56.8396782,60.7618123
1040,bus_stop,Школа,56.7486395,60.6788487
1041,bus_stop,Опытный Завод,56.7070199,60.6207497
1042,bus_stop,Поселок Рудный,56.7213704,60.6369957
1043,bus_stop,Поселок Рудный,56.7218771,60.6383081
1044,bus_stop,Сады,56.7412013,60.6553098
1045,bus_stop,Спортбаза,56.7444453,60.6594391
1046,bus_stop,Спортбаза,56.7445175,60.6597402
1047,bus_stop,Уральская,56.8537065,60.6352456
1048,bus_stop,Улица Луначарского,56.8487117,60.6165782
1049,bus_stop,Улица Луначарского,56.8488486,60.617715
1050,bus_stop,Поворот на УКЗ,56.7808572,60.7901912
1051,bus_stop,Поворот на УКЗ,56.7809125,60.7900127
1052,bus_stop,Эстонская,56.7864711,60.7830262
1053,bus_stop,Эстонская,56.7872569,60.7829693
1054,bus_stop,Клуб,56.7893221,60.7756435
1055,bus_stop,Клуб,56.7895703,60.7752812
1056,bus_stop,Белоярская,56.7939874,60.7736448
1057,bus_stop,Компрессорный микрорайон,56.7974941,60.7640546
1058,bus_stop,Компрессорный микрорайон,56.7977411,60.763995
1059,bus_stop,Латвийская,56.7962322,60.7681399
1060,bus_stop,Стадион,56.7932919,60.7695864
1061,bus_stop,Аэропорт Кольцово,56.7507944,60.8033913
1062,bus_stop,Уктус,56.777817,60.6251663
1063,bus_stop,Клеверный переулок,56.8090964,60.4998595
1064,bus_stop,Ледовый дворец,56.8048217,60.4947121
1065,bus_stop,Ледовый дворец,56.8062865,60.4956875
1066,bus_stop,Посёлок Мичуринский,56.788597,60.4807075
1067,bus_stop,Посёлок Мичуринский,56.7902999,60.4829011
1068,bus_stop,Посёлок Светлореченский,56.7996252,60.4938826
1069,bus_stop,Посёлок Мичуринский. Коллективные сады,56.791919,60.4626757
1070,bus_stop,Рябинина,56.7975725,60.513388
1071,bus_stop,Рябинина,56.7974448,60.5121161
1072,bus_stop,Горбольница № 6,56.8075006,60.5436138
1073,bus_stop,Инженерная,56.7554307,60.7062968
1074,bus_stop,Димитрова,56.7462147,60.6888958
1075,bus_stop,Щербакова,56.7818096,60.6552906
1076,bus_stop,Ясная (улица Шаумяна),56.8140004,60.5717456
1077,bus_stop,Ясная,56.8149714,60.5690619
1078,bus_stop,Черкасская,56.819894,60.5585625
1079,bus_stop,Репина,56.82413,60.5615268
1080,bus_stop,Репина,56.8273965,60.5615675
1081,bus_stop,Краснофлотцев,56.8891225,60.6328982
1082,bus_stop,40 лет Октября,56.8851176,60.5765863
1083,bus_stop,"Кинотеатр ""Темп""",56.8878602,60.5781705
1084,bus_stop,Бульвар Культуры,56.8903798,60.5814226
1085,bus_stop,Парк Победы,56.9024241,60.5680122
1086,bus_stop,улица Победы,56.9000238,60.5938021
1087,bus_stop,улица Победы,56.9012128,60.5953164
1088,bus_stop,Улица Восстания,56.9039075,60.5987522
1089,bus_stop,Улица Восстания,56.9040103,60.5998244
1090,bus_stop,Улица Восстания,56.9045366,60.598446
1091,bus_stop,Улица Ломоносова,56.9067387,60.5971043
1092,bus_stop,Улица Ломоносова,56.9076215,60.597403
1093,bus_stop,Улица Коммунистическая,56.9090524,60.5937211
1094,bus_stop,Улица Коммунистическая,56.9091851,60.5933971
1095,bus_stop,Ярославская,56.9125072,60.5977506
1096,bus_stop,Веер,56.9139755,60.6078772
1097,bus_stop,Педуниверситет,56.8787618,60.6111675
1098,bus_stop,Педуниверситет,56.8778363,60.6123778
1099,bus_stop,Больница,56.7624213,60.7078494
1100,bus_stop,Больница,56.7624648,60.7081886
1101,bus_stop,Гурзуфская,56.8248531,60.5670927
1102,bus_stop,Гурзуфская,56.8256392,60.5671698
1103,bus_stop,Поликлиника,56.7624416,60.7145849
1104,bus_stop,Широкая речка,56.7976833,60.4884705
1105,bus_stop,Широкая речка,56.7978485,60.4882712
1106,bus_stop,Зенитчиков,56.7731411,60.597817
1107,bus_stop,Зенитчиков,56.77337,60.5979754
1108,bus_stop,Московская,56.7808238,60.5969118
1109,bus_stop,Московская,56.7808591,60.5973023
1110,bus_stop,Санаторная,56.7681221,60.5944651
1111,bus_stop,Улица Титова,56.7819498,60.6070964
1112,bus_stop,Улица Титова,56.7821361,60.6084995
1113,bus_stop,Умельцев,56.7641354,60.5879609
1114,bus_stop,Умельцев,56.764517,60.5912631
1115,bus_stop,32-й Военный городок,56.7722914,60.5891662
1116,bus_stop,32-й Военный городок,56.7723419,60.5891666
1117,bus_stop,Анатолия Мехренцева,56.7849748,60.5231379
1118,bus_stop,Дарвина,56.7825288,60.6623672
1119,bus_stop,Дарвина,56.7826166,60.6629499
1120,bus_stop,Детский сад,56.776618,60.6391495
1121,bus_stop,Детский сад,56.7769613,60.6398646
1122,bus_stop,Лыжников,56.7803421,60.6484841
1123,bus_stop,Молодогвардейцев,56.7839669,60.6670178
1124,bus_stop,Павла Шаманова,56.7892173,60.5152551
1125,bus_stop,Попова,56.8347448,60.5917855
1126,bus_stop,Походная,56.7731624,60.6326597
1127,bus_stop,Походная,56.7733295,60.6328921
1128,bus_stop,Самолётная,56.7919123,60.6426418
1129,bus_stop,Черкасская,56.818968,60.5570699
1130,bus_stop,Щербакова,56.7812488,60.6544415
1131,bus_stop,Щорса,56.8097909,60.6218333
1132,bus_stop,Яблоневая,56.7838959,60.6792264
1133,bus_stop,8 Марта (улица Фурманова),56.8154895,60.6058639
1134,bus_stop,Проспект Орджоникидзе,56.8956553,60.5882009
1135,bus_stop,Улица Калинина,56.897236,60.5901555
1136,bus_stop,Улица Калинина,56.8980747,60.5912848
1137,tram_stop,Вечный огонь,56.8355511,60.5771804
1138,tram_stop,Вечный огонь,56.835721,60.5769133
1139,tram_stop,Площадь Коммунаров,56.8361369,60.5804934
1140,tram_stop,Волгоградская улица,56.8127549,60.5584682
1141,tram_stop,Красноуральская улица,56.8362589,60.5564408
1142,tram_stop,Дворец молодёжи,56.8370167,60.5806089
1143,tram_stop,площадь Коммунаров,56.8355999,60.5820991
1144,tram_stop,Площадь Обороны,56.8226828,60.6293982
1145,tram_stop,Верх-Исетский рынок,56.8504739,60.5548181
1146,tram_stop,Улица Пехотинцев,56.8705513,60.5492002
1147,tram_stop,Кировградская улица,56.8975694,60.5778623
1148,bus_stop,Площадь Коммунаров,56.8361376,60.5832895
1149,tram_stop,Улица Плотников,56.8364415,60.5405562
1150,tram_stop,Улица Рабочих,56.836574,60.5362043
1151,bus_stop,Щорса,56.8100206,60.6241399
1152,bus_stop,СтройАрсенал,56.764782,60.743768
1153,bus_stop,СтройАрсенал,56.7649072,60.7423108
1154,bus_stop,"Гипермаркет ""Сима-ленд""",56.7598017,60.7546461
1155,bus_stop,"Гипермаркет ""Сима-ленд""",56.7598601,60.7545211
1156,bus_stop,"Терминал ""Чкаловский""",56.7565758,60.7559774
1157,bus_stop,Электриков,56.8782758,60.6199247
1158,bus_stop,Сортировочная,56.8729512,60.5313198
1159,bus_stop,Екатеринбург. Ж/Д Вокзал,56.8577095,60.6067943
1160,bus_stop,Кирпичный завод,56.9149126,60.5785691
1161,bus_stop,Кирпичный завод,56.9149261,60.5785329
1162,bus_stop,Ильича,56.9000193,60.6114374
1163,bus_stop,Индустрии,56.9025895,60.6035361
1164,bus_stop,Ползунова,56.8993603,60.6463335
1165,bus_stop,Стахановская улица,56.9016208,60.6060288
1166,bus_stop,Метро Уралмаш,56.8881486,60.6134485
1167,bus_stop,Кирпичный завод,56.9559159,60.6674518
1168,bus_stop,Кирпичный завод,56.9560533,60.6675708
1169,bus_stop,Окружное кладбище,56.9381328,60.6580726
1170,bus_stop,"Екатеринбург. Метро ""Машиностроителей""",56.8782226,60.6142741
1171,tram_stop,Санаторная улица,56.7688389,60.5958336
1172,bus_stop,Санаторная,56.7692635,60.595693
1173,bus_stop,Санаторная,56.7699335,60.5956663
1174,bus_stop,"Магазин ""Клён""",56.7680072,60.6021091
1175,bus_stop,"Магазин ""Клён""",56.7680086,60.6021573
1176,bus_stop,Ферганская,56.7725439,60.6104372
1177,bus_stop,Ферганская,56.7728265,60.6124927
1178,tram_stop,Ферганская улица,56.772705,60.6123293
1179,bus_stop,"ТРК ""Карнавал""",56.8541007,60.5509374
1180,bus_stop,Педагогическая,56.8346976,60.6485278
1181,bus_stop,Софьи Перовской,56.8625917,60.5593567
1182,bus_stop,Центральный стадион,56.8312533,60.5758757
1183,bus_stop,УрФУ,56.8441096,60.6504756
1184,bus_stop,Уральских рабочих,56.9022257,60.5836142
1185,tram_stop,УрФУ (Уральский федеральный университет),56.8424476,60.645632
1186,bus_stop,"Мебельный центр ""Гулливер""",56.8237118,60.7058888
1187,bus_stop,Облсобес,56.8152385,60.6030323
1188,bus_stop,Хрустальногорская,56.7963256,60.4909684
1189,bus_stop,Хрустальногорская,56.7965485,60.4912874
1190,bus_stop,Сад Дружба,56.7725127,60.4664374
1191,bus_stop,"Сад ""Берёзка""",56.7833655,60.4713275
1192,bus_stop,Сад Дружба,56.7741634,60.4677618
1193,bus_stop,Сад Дружба-3,56.775958,60.45761
1194,bus_stop,Сад Дружба-3,56.7762311,60.4569141
1195,bus_stop,Янтарный ключ,56.7754277,60.4273222
1196,bus_stop,Янтарный ключ,56.7754637,60.4275025
1197,bus_stop,Сад Визовец,56.7731735,60.4121311
1198,bus_stop,Сад Визовец,56.7732783,60.4115989
1199,bus_stop,Каменные палатки,56.8421145,60.6772623
1200,bus_stop,Монтажников,56.8986207,60.507824
1201,bus_stop,Лесхоз,56.8209951,60.4970931
1202,bus_stop,"Коллективный сад ""Запад""",56.8203453,60.4811122
1203,bus_stop,"Коллективный сад ""Запад""",56.8203539,60.48082
1204,bus_stop,Парковый кордон,56.8173199,60.4644144
1205,bus_stop,Парковый кордон,56.817393,60.4645455
1206,bus_stop,4-й км,56.8145757,60.4371896
1207,bus_stop,4-й км,56.8145948,60.4370582
1208,bus_stop,5-й км,56.8163678,60.4274967
1209,bus_stop,6-й км,56.8104836,60.4137424
1210,bus_stop,6-й км,56.8105661,60.4138012
1211,bus_stop,8-й км,56.8022467,60.3958103
1212,bus_stop,8-й км,56.8022643,60.3959608
1213,bus_stop,10-й км,56.7939067,60.3622388
1214,bus_stop,10-й км,56.7941264,60.362556
1215,bus_stop,Кордон Берёзовый ключ,56.7887262,60.3460717
1216,bus_stop,Кордон Берёзовый ключ,56.7889759,60.3466015
1217,bus_stop,12-км,56.780924,60.3420327
1218,bus_stop,12-км,56.7810028,60.3420868
1219,bus_stop,"Коллективный сад ""Берёзка""",56.7750057,60.3304922
1220,bus_stop,"Коллективный сад ""Берёзка""",56.7750482,60.3306153
1221,bus_stop,14-й км,56.7719996,60.3244125
1222,bus_stop,14-й км,56.7721646,60.3239085
1223,bus_stop,"Сад ""Визовец""",56.7692097,60.3108778
1224,bus_stop,"Сад ""Визовец""",56.7693635,60.311032
1225,bus_stop,Репина,56.828134,60.5678783
1226,bus_stop,Станция метро «Динамо»,56.8476552,60.6013718
1227,bus_stop,Станция метро «Динамо»,56.8479584,60.6006868
1228,bus_stop,ТЮЗ,56.8474671,60.607882
1229,bus_stop,ТЮЗ,56.8480432,60.611029
1230,bus_stop,"Универсам ""Звёздный""",56.8512603,60.6303254
1231,bus_stop,"Универсам ""Звёздный""",56.8518209,60.6314125
1232,bus_stop,Дом пионеров,56.8910895,60.5908405
1233,bus_stop,Детская больница,56.8927651,60.5903748
1234,bus_stop,Проспект Орджоникидзе,56.8938373,60.5900935
1235,bus_stop,Школа,56.8953077,60.6050351
1236,bus_stop,Библиотека,56.8918395,60.6006134
1237,bus_stop,Краснознамённая,56.8888102,60.5966799
1238,bus_stop,Чкалова,56.8019806,60.5670468
1239,bus_stop,УНЦ,56.7662749,60.5498355
1240,bus_stop,УНЦ,56.7663956,60.5494498
1241,tram_stop,Площадь Коммунаров,56.8361701,60.5829745
1242,tram_stop,Белореченская улица,56.8232715,60.5713239
1243,tram_stop,ТК «Буревестник»,56.8164543,60.5629033
1244,tram_stop,Гурзуфская улица,56.8261681,60.5747576
1245,tram_stop,Московская улица,56.8291885,60.5841323
1246,tram_stop,Юго-Западная,56.827159,60.5789131
1247,tram_stop,Цирк,56.8265433,60.6033092
1248,tram_stop,Улица Южная,56.8005964,60.612428
1249,tram_stop,улица Академика Шварца,56.7962492,60.6103389
1250,tram_stop,Ювелирная,56.7916994,60.6050505
1251,tram_stop,Заводская улица,56.8359949,60.5523843
1252,tram_stop,Улица Татищева,56.8361583,60.5476837
1253,tram_stop,Улица Плотников,56.8236477,60.5422881
1254,tram_stop,Новомосковская,56.8188407,60.5385482
1255,tram_stop,Улица Ухтомская,56.8168081,60.5429946
1256,tram_stop,Улица Ухтомская,56.8171028,60.5421829
1257,tram_stop,Улица Серафимы Дерябиной,56.8143918,60.5491242
1258,tram_stop,ВИЗ (Верх-Исетский завод),56.8391184,60.5554544
1259,bus_stop,Керамическая,56.7569344,60.5958746
1260,tram_stop,Улица Мусоргского,56.7590201,60.5892382
1261,tram_stop,Эскадронная улица,56.7652231,60.5933884
1262,tram_stop,бульвар Малахова,56.7975937,60.6207842
1263,bus_stop,Станция метро Ботаническая,56.798247,60.6294949
1264,bus_stop,Станция метро Ботаническая,56.7982916,60.6295712
1265,tram_stop,улица Юлиуса Фучика,56.7975743,60.6117829
1266,tram_stop,Улица Крылова,56.8394866,60.5703794
1267,tram_stop,Улица Московская,56.8298889,60.5847765
1268,tram_stop,ТЦ «Алатырь»,56.8314263,60.5842899
1269,tram_stop,Московская улица,56.8286042,60.5851855
1270,tram_stop,Московская улица,56.8287479,60.5852058
1271,tram_stop,Посадская улица,56.8183366,60.5885947
1272,tram_stop,Площадь 1905 года,56.8374472,60.5953962
1273,tram_stop,Цирк,56.8272731,60.6039907
1274,tram_stop,Улица Декабристов,56.8246139,60.6263832
1275,tram_stop,Дом художника,56.8288734,60.6246371
1276,tram_stop,Дом художника,56.8299425,60.6243059
1277,tram_stop,Улица Тверитина,56.8228428,60.6359584
1278,tram_stop,Ж/Д Вокзал,56.8563131,60.6052359
1279,tram_stop,улица Блюхера,56.851435,60.6405897
1280,tram_stop,Кондукторская улица,56.8597944,60.6272777
1281,tram_stop,Пионерская,56.8591926,60.6209426
1282,tram_stop,Каменные палатки,56.8416207,60.6783742
1283,tram_stop,Профессорская,56.8403411,60.6523246
1284,tram_stop,улица Блюхера,56.8516156,60.641919
1285,tram_stop,ТК «Современник«,56.856249,60.6516047
1286,tram_stop,Шарташ,56.8642973,60.6689605
1287,tram_stop,Шарташ,56.8643189,60.668845
1288,bus_stop,Радуга парк,56.8180959,60.5378118
1289,tram_stop,1-й км,56.8629981,60.6121205
1290,tram_stop,Техническое училище,56.8686895,60.6117091
1291,tram_stop,Калининская,56.8719526,60.6115037
1292,tram_stop,Педагогический университет,56.8779204,60.6122016
1293,tram_stop,Педагогический университет,56.8785048,60.6109715
1294,tram_stop,Станция метро «Уралмаш»,56.8875951,60.6125287
1295,tram_stop,Улица Кузнецова,56.887879,60.6073124
1296,tram_stop,Дворец культуры им. Лаврова,56.893055,60.6134462
1297,bus_stop,Северный терминал,56.8680115,60.6705123
1298,tram_stop,Автомагистральная улица,56.8755321,60.5536608
1299,bus_stop,"ТЦ ""Комсомолл""",56.828829,60.6753396
1300,bus_stop,"Коттеджный посёлок ""Усадьба""",56.7731257,60.8467352
1301,bus_stop,"Коттеджный посёлок ""Усадьба""",56.7731569,60.8452155
1302,tram_stop,Таганский ряд,56.8611663,60.5487157
1303,tram_stop,Фармацевтический колледж,56.8563134,60.5495145
1304,tram_stop,Таганский ряд,56.8616582,60.5476086
1305,tram_stop,ДК ВОС (Дом культуры Всероссийского общества слепых),56.8646707,60.5369849
1306,tram_stop,Техническая улица,56.8661837,60.5326125
1307,tram_stop,Улица Ватутина,56.8715418,60.5206708
1308,tram_stop,7 ключей,56.8835786,60.4982751
1309,tram_stop,Разъезд,56.8367914,60.5305248
1310,bus_stop,Эльмаш,56.8954811,60.6383649
1311,tram_stop,Завод «Уралкабель»,56.8354192,60.563216
1312,tram_stop,Завод «Уралкабель»,56.8354598,60.5632204
1313,bus_stop,Уралкабель,56.8352803,60.5634251
1314,bus_stop,"Коллективный сад ""Радость""",56.9378557,60.5224428
1315,bus_stop,ТЦ «Лента»,56.7921042,60.5022472
1316,bus_stop,Павла Шаманова,56.7939495,60.5056552
1317,bus_stop,Шаумяна,56.8068349,60.5934581
1318,bus_stop,Посёлок Ягодный,56.9391776,60.6692683
1319,bus_stop,Посёлок Ягодный,56.9393106,60.6694062
1320,bus_stop,Кладбище,56.7387557,60.7035065
1321,tram_stop,Красноуральская улица,56.8356308,60.5573809
1322,tram_stop,Мельникова,56.8352065,60.5684288
1323,tram_stop,Мельникова,56.8352479,60.5684316
1324,tram_stop,Улица Ельцина,56.845313,60.5862093
1325,bus_stop,Unknown,56.7957549,60.3970856
1326,bus_stop,Unknown,56.7953892,60.3975108
1327,bus_stop,Торфяник,56.7084931,60.7377315
1328,tram_stop,Заводская улица,56.8359698,60.5536687
1329,bus_stop,улица Очеретина,56.7957824,60.5169511
1330,bus_stop,улица Очеретина,56.7954909,60.5171395
1331,bus_stop,ВИЗ,56.8583559,60.5544241
1332,bus_stop,Станция Исток,56.7887805,60.7896492
1333,tram_stop,Театр музыкальной комедии,56.8390825,60.6108251
1334,bus_stop,А. Муранова,56.8119503,60.5134539
1335,bus_stop,Областной рынок на Громова,56.7984408,60.560954
1336,bus_stop,Бардина,56.8027661,60.5630329
1337,bus_stop,Генеральская,56.8445819,60.6360701
1338,bus_stop,Кладбище,56.7403193,60.7016938
1339,bus_stop,Площадь 1905 года,56.8373618,60.5956417
1340,tram_stop,Площадь 1-й Пятилетки,56.8859802,60.5948477
1341,bus_stop,Ярославская,56.9125215,60.5981718
1342,bus_stop,Торфяник,56.7103621,60.7334881
1343,bus_stop,Коллективные сады,56.7043792,60.7472603
1344,bus_stop,Коллективные сады,56.7043151,60.7469214
1345,bus_stop,Яблоневая улица,56.7875723,60.6805665
1346,bus_stop,Яблоневая улица,56.7875289,60.6800342
1347,bus_stop,Лесничество,56.7770608,60.801032
1348,bus_stop,"Технопарк ""Университетский""",56.8348034,60.7897769
1349,bus_stop,Технопарк Университетский,56.8345545,60.7897711
1350,bus_stop,Росинка-2,56.8391322,60.7906097
1351,bus_stop,Росинка-2,56.8392975,60.7887077
1352,bus_stop,Развилки,56.8446497,60.7238989
1353,tram_stop,Театр музыкальной комедии,56.8390911,60.6105885
1354,bus_stop,Сибирский тракт,56.8260113,60.6365948
1355,bus_stop,Заречный,56.9377236,60.6163935
1356,bus_stop,Тубсанаторий,56.8179845,60.7285102
1357,tram_stop,Академия спорта,56.9072755,60.620422
1358,tram_stop,Тепличная улица,56.911233,60.6193098
1359,bus_stop,Шарташский рынок,56.8308375,60.6374558
1360,bus_stop,Станция Шарташ,56.828618,60.6477316
1361,bus_stop,Улица Любви,56.7412464,60.561387
1362,bus_stop,Микрорайон Солнечный,56.7440733,60.5689133
1363,bus_stop,"Сад ""Авиатор-5""",56.7675103,60.7893381
1364,bus_stop,Переулок Активистов,56.8239748,60.6507886
1365,bus_stop,Переулок Активистов,56.8236767,60.6521792
1366,bus_stop,Дунайская,56.7860277,60.6736616
1367,bus_stop,ЖБИ,56.8295969,60.6936586
1368,bus_stop,Славянская,56.7641993,60.7107959
1369,bus_stop,Славянская,56.7645443,60.7106381
1370,tram_stop,Улица Ильича,56.8962962,60.6059811
1371,tram_stop,Улица Ильича,56.8961674,60.6064178
1372,tram_stop,Улица Индустрии,56.8990744,60.59886
1373,tram_stop,Улица Индустрии,56.8993534,60.5980264
1374,tram_stop,Улица Победы,56.9005406,60.5950464
1375,tram_stop,Улица Победы,56.900814,60.5942308
1376,tram_stop,Улица Бакинских комиссаров,56.9037156,60.5867911
1377,tram_stop,Улица Бакинских комиссаров,56.9035335,60.5871571
1378,tram_stop,Лебяжье озеро,56.9374365,60.6164793
1379,tram_stop,Лебяжье озеро,56.9374597,60.6165302
1380,tram_stop,Полевая,56.9346937,60.6171522
1381,tram_stop,Полевая,56.9346845,60.6171985
1382,tram_stop,Улица Чуцкаева,56.9319928,60.6167577
1383,tram_stop,Улица Чуцкаева,56.931963,60.6167447
1384,tram_stop,Парк «Пышминские озёрки»,56.9192056,60.6175327
1385,tram_stop,Парк «Пышминские озёрки»,56.9191718,60.617571
1386,tram_stop,Улица Льва Люльева,56.914712,60.6159607
1387,tram_stop,Улица Льва Люльева,56.9147254,60.6159113
1388,tram_stop,Тепличная улица,56.9112941,60.6192331
1389,tram_stop,Академия спорта,56.907386,60.6202753
1390,tram_stop,Шефская улица,56.9027744,60.6241123
1391,tram_stop,Шефская улица,56.902144,60.6239278
1392,tram_stop,Улица Старых Большевиков,56.9009933,60.6204015
1393,tram_stop,Улица Старых Большевиков,56.9009584,60.6204049
1394,tram_stop,улица Академика Вонсовского,56.796845,60.5288003
1395,tram_stop,улица Академика Вонсовского,56.7968663,60.5287524
1396,bus_stop,улица Академика Бардина,56.8099302,60.5462129
1397,tram_stop,Горбольница № 6,56.8054765,60.5406835
1398,bus_stop,Екатеринбург-Пассажирский,56.8587693,60.6058739
1399,bus_stop,"Коллективный сад ""Надежда""",56.8865388,60.457069
1400,bus_stop,А. Муранова,56.8116457,60.5113209
1401,bus_stop,Вечный Огонь,56.8355107,60.5786349
1402,bus_stop,Кольцевая автодорога,56.8125473,60.5178495
1403,bus_stop,Детский центр,56.8274095,60.5339317
1404,bus_stop,Новомосковский тракт,56.8277001,60.5287213
1405,bus_stop,Новомосковский тракт,56.8274367,60.5310235
1406,bus_stop,"ТК ""Новомосковский""",56.8275316,60.5225389
1407,bus_stop,улица Металлургов,56.8287118,60.5445121
1408,bus_stop,Областная больница,56.8093478,60.5637932
1409,bus_stop,Улица Серафимы Дерябиной,56.8145964,60.5487836
1410,bus_stop,Улица Серафимы Дерябиной,56.814504,60.5491898
1411,bus_stop,Улица Ухтомская,56.8167217,60.5435425
1412,bus_stop,Новомосковская,56.8193698,60.5377057
1413,bus_stop,"НПЦ ""Онкология""",56.8043068,60.5049383
1414,bus_stop,ЖК Светлый,56.7793133,60.6978877
1415,tram_stop,Улица Шейнкмана,56.8411758,60.5805039
1416,bus_stop,Патриотов,56.7829345,60.6724694
1417,bus_stop,Алтайская,56.7823943,60.6819906
1418,tram_stop,Улица Радищева,56.8306897,60.5997787
1419,bus_stop,Первомайская улица,56.8470157,60.6438451
1420,tram_stop,улица Гагарина,56.8400396,60.6465851
1421,bus_stop,улица Металлургов,56.8282997,60.5441816
1422,tram_stop,улица Металлургов,56.8282923,60.5443293
1423,tram_stop,улица Челюскинцев,56.8565379,60.6145559
1424,tram_stop,Автовокзал,56.8061258,60.6108274
1425,tram_stop,Академия при Президенте России,56.8224202,60.6048884
1426,tram_stop,улица Большакова,56.8182191,60.6064823
1427,tram_stop,Улица Фрунзе,56.8137122,60.6081858
1428,tram_stop,Улица Фрунзе,56.8137073,60.6081253
1429,bus_stop,Опалихинская,56.8500383,60.5643144
1430,bus_stop,КОР,56.8430588,60.6951145
1431,bus_stop,Посёлок Шувакиш,56.9107056,60.4876308
1432,bus_stop,Дорожная улица,56.7761252,60.5947453
1433,bus_stop,Дорожная улица,56.775938,60.594397
1434,bus_stop,Мельникова,56.8350599,60.5687892
1435,bus_stop,Проспект Космонавтов,56.9013938,60.6139317
1436,bus_stop,Проспект Космонавтов,56.9013946,60.6140851
1437,bus_stop,Уралмаш,56.8882623,60.6133714
1438,metro,Уралмаш,56.8882559,60.6134976
1439,bus_stop,Машиностроителей,56.8770343,60.611531
1440,metro,Машиностроителей,56.8770107,60.6116604
1441,metro,Уральская,56.857471,60.6003811
1442,bus_stop,Уральская,56.8574834,60.6002865
1443,bus_stop,Динамо,56.8476199,60.5992233
1444,metro,Динамо,56.8476124,60.5993098
1445,bus_stop,Площадь 1905 года,56.8368559,60.5990671
1446,bus_stop,Геологическая,56.827797,60.6021471
1447,metro,Геологическая,56.827831,60.6022393
1448,bus_stop,Чкаловская,56.8077018,60.6101258
1449,metro,Чкаловская,56.8076989,60.6102992
1450,bus_stop,Ботаническая,56.7973089,60.6320771
1451,metro,Ботаническая,56.7974414,60.6315432
1452,metro,Площадь 1905 года,56.8368678,60.5991644
1453,bus_stop,Золотистый бульвар,56.7436967,60.5601464
1454,bus_stop,Улица Счастливая,56.7461552,60.5652334
1455,bus_stop,Улица Чемпионов,56.7483317,60.5683312
1456,bus_stop,Микрорайон Солнечный,56.7443907,60.5703742
1457,bus_stop,Улица Любви,56.7417967,60.5634444
1458,bus_stop,Центр художественной гимнастики,56.7392971,60.5561744
1459,bus_stop,Центр художественной гимнастики,56.739799,60.5581458
1460,bus_stop,Нескучная улица,56.7376879,60.5524187
1461,bus_stop,Полигон,56.7661258,60.4645047
1462,bus_stop,Полигон,56.7662319,60.4645451
1463,bus_stop,Просека,56.7623333,60.4630745
1464,bus_stop,Просека,56.7624697,60.4631278
1465,bus_stop,Циолковского,56.804179,60.5932693
1466,bus_stop,Начдива Васильева,56.8252438,60.5436824
1467,bus_stop,ЕКАД,56.7790493,60.4411718
1468,bus_stop,Институт связи,56.8294597,60.5687332
1469,bus_stop,Улица Чемпионов,56.7490496,60.5686505
1470,bus_stop,Улица Чемпионов,56.7485037,60.5695143
1471,bus_stop,Нескучная улица,56.7380838,60.5509137
1472,bus_stop,"Ритейл-парк ""Солнечный""",56.7402219,60.543699
1473,bus_stop,"Ритейл-парк ""Солнечный""",56.7396515,60.5440201
1474,bus_stop,Улица Счастливая,56.7467779,60.5663282
1475,bus_stop,Золотистый бульвар,56.7443613,60.5603734
1476,bus_stop,БК Квартал,56.8194511,60.6509502
1477,bus_stop,Горбольница № 6,56.8070781,60.5422165
1478,tram_stop,Улица Окружная,56.7569038,60.5875519
1479,tram_stop,Лучистая улица,56.7465027,60.5728299
1480,tram_stop,Лучистая улица,56.7464432,60.5728568
1481,bus_stop,Новосинарский бульвар,56.7813305,60.7496966
1482,bus_stop,ЭКСПО-бульвар,56.7753354,60.7600995
1483,bus_stop,Спортивная деревня,56.7702549,60.7559583
1484,bus_stop,Кампус УрФУ,56.7723098,60.7613082
1485,bus_stop,Улица 100-летия Уральского университета,56.7731972,60.7585336
1486,bus_stop,Улица Олимпийская,56.7788017,60.7560253
1487,bus_stop,Улица Олимпийская,56.7791773,60.7546987
1488,bus_stop,Новосинарский бульвар,56.7804481,60.7515015
1489,bus_stop,Улица Варшавская,56.7833744,60.7447388
1490,bus_stop,Уральский университет,56.7745135,60.7670201
1491,bus_stop,Дворец водных видов спорта,56.772661,60.7716596
1492,bus_stop,Студенческий городок,56.768957,60.7652495
1493,bus_stop,Экспо-бульвар,56.7694909,60.7563411
1494,bus_stop,Экспо-бульвар,56.7692067,60.7547513
1495,bus_stop,Улица 100-летия Уральского университета,56.7721332,60.7572415
1496,bus_stop,Уральский университет,56.7738134,60.7683825
1497,bus_stop,Микрорайон Новокольцовский,56.7763968,60.7640773
1498,bus_stop,Микрорайон Новокольцовский,56.775918,60.7631805
1499,bus_stop,Unknown,56.7872939,60.5121272
1500,bus_stop,Unknown,56.7874298,60.5107472
1501,bus_stop,"ТСЦ ""Мега""",56.822469,60.5024982
1502,bus_stop,Улица Академика Парина,56.7852432,60.5072828
1503,tram_stop,Горбольница № 6,56.8050763,60.5402666
1504,tram_stop,Краснолесье,56.7926193,60.5209921
1505,tram_stop,Краснолесье,56.7933667,60.522294
1506,tram_stop,проспект Академика Сахарова,56.7872697,60.5111493
1507,tram_stop,улица Павла Шаманова,56.7891089,60.5145227
1508,tram_stop,улица Павла Шаманова,56.7897487,60.5156115
1509,bus_stop,Октябрьская,56.7832895,60.7819123
1510,bus_stop,Улица Начдива Онуфриева,56.8015807,60.5485742
1511,bus_stop,Улица Начдива Онуфриева,56.8024101,60.5463914
1512,tram_stop,проспект Академика Сахарова,56.7872954,60.511095
1513,bus_stop,Сады,56.7700168,60.7312649
1514,bus_stop,Ramada отель,56.7753175,60.71723
1515,tram_stop,Улица Академика Парина,56.7852101,60.5073483
1516,bus_stop,СНТ «Свердловское ОПХ»,56.6677429,60.5828591
1517,bus_stop,СНТ «Свердловское ОПХ»,56.667423,60.5832077
1518,bus_stop,"Сад ""Родничок""",56.7071803,60.5654926
1519,bus_stop,Керамик,56.7505255,60.6085688
1520,bus_stop,Экодолье,56.7070635,60.4955172
1521,tram_stop,улица Академика Бардина,56.8096582,60.5458264
1522,bus_stop,Педагогическая,56.8341807,60.6537674
1523,bus_stop,Профессорская,56.8397894,60.6517159
1524,bus_stop,Екатеринбург-Сортировочный,56.8821212,60.4730406
1525,bus_stop,Екатеринбург-Сортировочный,56.8822619,60.4731168
1526,bus_stop,Екатеринбург-Сортировочный,56.8823061,60.4731407
1527,bus_stop,Екатеринбург-Сортировочный,56.8823527,60.473166
1528,bus_stop,Екатеринбург-Сортировочный,56.8820773,60.4730168
1529,bus_stop,Екатеринбург-Сортировочный,56.8823975,60.4731903
1530,bus_stop,Электродепо,56.8642128,60.5107544
1531,bus_stop,Электродепо,56.8642442,60.510792
1532,bus_stop,ВИЗ,56.8583143,60.5544267
1533,bus_stop,Перегон,56.862567,60.3713974
1534,bus_stop,Перегон,56.8624705,60.371457
1535,bus_stop,Перегон,56.8626119,60.3713697
1536,bus_stop,1639 км,56.8562481,60.3252685
1537,bus_stop,1639 км,56.8563658,60.3251547
1538,bus_stop,Палкино,56.8796623,60.4070067
1539,bus_stop,Палкино,56.8807,60.4052661
1540,bus_stop,Палкино,56.8806615,60.4052887
1541,bus_stop,Шарташ,56.8302314,60.646522
1542,bus_stop,Шарташ,56.8301673,60.6464624
1543,bus_stop,Шарташ,56.8303105,60.6465957
1544,bus_stop,Шарташ,56.8300721,60.6463737
1545,tram_stop,Улица Фрунзе (в депо),56.8133797,60.6096199
1546,tram_stop,Улица Фронтовых Бригад,56.8832065,60.6380405
1547,bus_stop,Северка,56.8620396,60.3051983
1548,bus_stop,Северка,56.8619396,60.3051818
1549,bus_stop,Северка,56.8618784,60.3051706
1550,bus_stop,Огородная,56.9028473,60.4587222
1551,bus_stop,Шувакиш,56.9205356,60.4820628
1552,bus_stop,Шувакиш,56.9203123,60.4818043
1553,bus_stop,Шувакиш,56.9203776,60.4818841
1554,bus_stop,Шувакиш,56.9202787,60.4817633
1555,bus_stop,Первомайская,56.8431379,60.6321961
1556,bus_stop,Первомайская,56.8431697,60.6324716
1557,bus_stop,Синие Камни,56.8285542,60.6754182
1558,bus_stop,Вторчермет,56.7673088,60.61514
1559,bus_stop,Ботаническая,56.7926949,60.6405832
1560,bus_stop,Лесотехническая,56.8171643,60.6675672
1561,bus_stop,Кольцово,56.7614604,60.8198206
1562,bus_stop,Кольцово,56.7615097,60.8199018
1563,bus_stop,Аэропорт Кольцово,56.7520139,60.8072207
1564,bus_stop,Компрессорный завод,56.7868738,60.7758623
1565,bus_stop,Компрессорный завод,56.7869083,60.7758984
1566,bus_stop,Чапаевская,56.8093404,60.7183684
1567,bus_stop,Путёвка,56.8175329,60.6972215
1568,bus_stop,Путёвка,56.8174589,60.6972127
1569,bus_stop,Сысерть,56.6772147,60.5774011
1570,bus_stop,21 км,56.7113301,60.5871464
1571,bus_stop,Приисковый,56.620887,60.5098544
1572,bus_stop,Шабровская,56.6459331,60.5518321
1573,bus_stop,Исток,56.7873971,60.7878162
1574,bus_stop,Большая Поляна,56.8055634,60.758281
1575,bus_stop,Большая Поляна,56.8056008,60.7582348
1576,bus_stop,Глубокое,56.7633619,60.9124925
1577,bus_stop,Глубокое,56.7633948,60.91245
1578,bus_stop,Хуторята,56.7714574,60.8208994
1579,bus_stop,Хуторята,56.7714141,60.8209215
1580,bus_stop,Березит,56.9535171,60.7230987
1581,bus_stop,Березит,56.9535708,60.723052
1582,bus_stop,Unknown,56.762414,60.5901612
1583,bus_stop,Бакинских Комиссаров,56.90429,60.5865187
1584,bus_stop,Кировградская улица,56.8981733,60.5775621
1585,bus_stop,Кировградская улица,56.8980274,60.5785642
1586,bus_stop,Парк Победы,56.9015627,60.5682637
1587,bus_stop,Детский сад №43,56.7849811,60.5048806
1588,bus_stop,Unknown,56.7803069,60.6509602
1589,bus_stop,Академия спорта,56.9074417,60.6195854
1590,bus_stop,Академия спорта,56.9083849,60.6199489
1591,bus_stop,Веер,56.9148056,60.6112655
1592,bus_stop,Unknown,56.7992257,60.5940919
1593,bus_stop,Мельникова,56.8353015,60.5694562
1594,bus_stop,Unknown,56.784802,60.5062526
1595,bus_stop,Unknown,56.7397748,60.6069056
1596,bus_stop,Улица Трактовая,56.7794643,60.7950365
1597,bus_stop,Unknown,56.7829075,60.5385499
1598,bus_stop,Unknown,56.780294,60.5250709
1599,bus_stop,Unknown,56.7799441,60.5253751
1600,bus_stop,Unknown,56.7773072,60.5301229
1601,bus_stop,Unknown,56.7783368,60.5302285
1602,bus_stop,Unknown,56.778197,60.5288769
1603,bus_stop,Unknown,56.7775714,60.5287289
1604,bus_stop,Unknown,56.7824864,60.5208009
1605,bus_stop,Unknown,56.7833004,60.5196691
1606,bus_stop,Unknown,56.7854691,60.5157691
1607,bus_stop,Unknown,56.7851018,60.5160615
1608,bus_stop,Unknown,56.7896804,60.4977433
1609,bus_stop,Unknown,56.7888497,60.4976293
1610,bus_stop,Unknown,56.7641222,60.591626
1611,bus_stop,Unknown,56.7650167,60.5926493
1612,bus_stop,Unknown,56.9026118,60.5894655
1613,bus_stop,Unknown,56.8695362,60.5527742
1614,bus_stop,Unknown,56.757329,60.5886126
1615,bus_stop,Unknown,56.798254,60.5124879
1616,bus_stop,Unknown,56.8004939,60.5053673
1617,bus_stop,Unknown,56.7999575,60.5073335
1618,bus_stop,Unknown,56.7971025,60.4947882
1619,bus_stop,Тенистая,56.8026949,60.4945573
1620,bus_stop,Unknown,56.7899921,60.5072092
1621,bus_stop,Unknown,56.7902845,60.5070873
1622,bus_stop,ТЦ «Лента»,56.7928754,60.5024383
1623,bus_stop,Unknown,56.7940371,60.5003179
1624,bus_stop,Unknown,56.79472,60.4990889
1625,bus_stop,Unknown,56.795871,60.4967436
1626,bus_stop,Таганский ряд,56.8610442,60.5478216
1627,bus_stop,Новгородцевой,56.8343105,60.6700939
1628,bus_stop,Сады,56.8327544,60.3340556
1629,bus_stop,Краснофлотцев,56.8849344,60.6146919
1630,bus_stop,Отрадная,56.8174013,60.5321782
1631,bus_stop,Норильская,56.8824749,60.6963295
1632,bus_stop,Каменные палатки,56.8420847,60.6795436
1633,tram_stop,Ж/Д Вокзал,56.856321,60.6057028
1634,tram_stop,Кондукторская улица,56.8598948,60.6272177
1635,tram_stop,Улица Учителей,56.8579512,60.6302607
1636,tram_stop,Новгородцевой,56.8369488,60.6802533
1637,tram_stop,Сиреневый бульвар,56.8350397,60.6850638
1638,tram_stop,ЦПКиО (Центральный парк культуры и отдыха),56.8186606,60.6388362
1639,tram_stop,УлицаТверитина,56.8227448,60.6359284
1640,tram_stop,7 ключей,56.8835593,60.4981621
1641,tram_stop,Маневровая улица,56.8737876,60.5182978
1642,tram_stop,Теплоходный проезд,56.8633863,60.5406554
1643,tram_stop,Улица Колмогорова,56.84649,60.5581093
1644,tram_stop,Улица Колмогорова,56.8459447,60.5585561
1645,tram_stop,Улица Кирова,56.8401587,60.5595626
1646,tram_stop,Красноуральская улица,56.8359007,60.5554851
1647,tram_stop,Малый Конный полуостров,56.8393185,60.5189041
1648,tram_stop,Зелёный остров,56.8441783,60.4995323
1649,tram_stop,Верх-Исетский бульвар,56.8381154,60.5753413
1650,tram_stop,Улица Крылова,56.8395344,60.5703144
1651,tram_stop,Педагогический университет,56.8779413,60.6117841
1652,tram_stop,Калининская,56.8723394,60.6114251
1653,tram_stop,1-й км,56.8629758,60.6120293
1654,tram_stop,Пионерская,56.8601709,60.6184444
1655,tram_stop,Техническое училище,56.8686037,60.6116386
1656,tram_stop,Станция метро «Уралмаш»,56.887534,60.6126049
1657,tram_stop,Площадь 1-й Пятилетки,56.8859723,60.594578
1658,tram_stop,Улица Кузнецова,56.8884664,60.6081541
1659,tram_stop,Дворец культуры им. Лаврова,56.8930473,60.6133854
1660,tram_stop,Улица Уральских рабочих,56.9017117,60.5831806
1661,tram_stop,Улица Машиностроителей,56.8850922,60.5848131
1662,bus_stop,Первомайская,56.8420234,60.6326751
1663,tram_stop,Московская улица,56.8290335,60.5835175
1664,bus_stop,10-й км,56.7950932,60.7262807
1665,bus_stop,Союз,56.8081909,60.7692565
1666,bus_stop,Громова,56.7984232,60.5572316
1667,bus_stop,Каменный ручей,56.7775307,60.6620451
1668,bus_stop,Прониной,56.7739174,60.6671175
1669,bus_stop,Байкальская,56.828727,60.6642197
1670,bus_stop,Сад «Берёзка»,56.7836856,60.4714299
1671,bus_stop,Госпиталь ВОВ,56.8101095,60.5068425
1672,bus_stop,Лечебный,56.7949078,60.7275258
1673,bus_stop,Уктус,56.7778358,60.6250927
1674,bus_stop,Заречный,56.857358,60.5561588
1675,bus_stop,Звезда,56.8667516,60.5843609
1676,bus_stop,Палкино,56.8797044,60.406893
1677,bus_stop,Уральская,56.8574855,60.6004725
1678,bus_stop,Динамо,56.8476103,60.599374
1679,bus_stop,Геологическая,56.8277976,60.6023917
1680,bus_stop,Машиностроителей,56.8770332,60.6118115
1681,bus_stop,Площадь 1905 года,56.8368759,60.5992742
1682,metro,Проспект Космонавтов,56.9013921,60.6139981
1683,bus_stop,Уралмаш,56.8882576,60.6135728
1684,bus_stop,Шаумяна,56.8057519,60.5906704
1685,bus_stop,Опалихинская,56.8506527,60.5637112
1686,bus_stop,Юридическая академия,56.8478202,60.5652464
1687,tram_stop,Студенческая улица,56.8584361,60.6562054
1688,tram_stop,Сахалинская улица,56.8618499,60.663362
1689,bus_stop,Посёлок Пески,56.8447579,60.7052482
1690,tram_stop,улица Академика Шварца,56.7962998,60.6103087
1691,tram_stop,Ювелирная,56.7916532,60.6049826
1692,tram_stop,Вторчермет,56.7693592,60.6145752
1693,tram_stop,Эскадронная улица,56.7655331,60.5935357
1694,tram_stop,Санаторная улица,56.7693995,60.5961386
1695,tram_stop,Керамическая,56.7568862,60.5958702
1696,tram_stop,улица Челюскинцев,56.856434,60.6145344
1697,tram_stop,Улица Лукиных,56.8835691,60.5630677
1698,tram_stop,Эльмаш,56.8955453,60.638356
1699,bus_stop,Посёлок Изоплит,56.8670571,60.7321876
1700,tram_stop,Автомагистральная улица,56.8753405,60.5534038
1701,bus_stop,Промышленный проезд,56.8803846,60.6749592
1702,bus_stop,Сады,56.7416064,60.6556787
1703,bus_stop,Заречный,56.9382337,60.6154538
1704,bus_stop,Ж/д вокзал,56.8564475,60.6049215
1705,bus_stop,Северный Химмаш,56.7681858,60.7093563
1706,tram_stop,Дом Кино,56.8366127,60.6217585
1707,tram_stop,УрФУ (Уральский федеральный университет),56.842954,60.6443
1708,tram_stop,Улица Восточная,56.8413937,60.6313175
1709,tram_stop,Улица Восточная,56.8415048,60.6311988
1710,tram_stop,Улица Комсомольская,56.8410703,60.6589776
1711,tram_stop,Профессорская,56.8403475,60.6526946
1712,tram_stop,улица Гагарина,56.8400325,60.6465328
1713,tram_stop,Улица Комсомольская,56.8412272,60.6600302
1714,tram_stop,Каменные палатки,56.8413553,60.6784076
1715,tram_stop,Новгородцевой,56.8374033,60.6800013
1716,tram_stop,Улица 40-летия ВЛКСМ,56.834722,60.6916334
1717,tram_stop,Улица Бажова,56.8409367,60.6261558
1718,tram_stop,Улица Бажова,56.8407177,60.6256446
1719,tram_stop,Оперный театр,56.8400645,60.618068
1720,tram_stop,Оперный театр,56.8399067,60.6182042
1721,tram_stop,Гостиница «Исеть»,56.8407994,60.6201123
1722,tram_stop,Дом художника,56.8298021,60.6242984
1723,tram_stop,Дом художника,56.8289999,60.6246438
1724,tram_stop,Улица Белинского,56.8287219,60.6174422
1725,tram_stop,Улица Белинского,56.8285772,60.6163709
1726,tram_stop,Цирк,56.8272986,60.6039065
1727,tram_stop,Цирк,56.8265478,60.6033594
1728,tram_stop,улица Большакова,56.8182157,60.6064248
1729,tram_stop,Автовокзал,56.8061306,60.6108885
1730,tram_stop,Переулок Рижский,56.7855765,60.6067709
1731,tram_stop,Переулок Рижский,56.7852103,60.6070507
1732,tram_stop,Завод РТИ,56.7824619,60.6094669
1733,tram_stop,Завод РТИ,56.7820469,60.6096745
1734,tram_stop,Братская,56.7795172,60.6106278
1735,tram_stop,Братская,56.7790558,60.6108324
1736,tram_stop,Сухоложская,56.7763385,60.61193
1737,tram_stop,Сухоложская,56.7758123,60.6121968
1738,tram_stop,Первомайская улица,56.8453204,60.6446274
1739,tram_stop,улица Блюхера,56.8515711,60.6404705
1740,tram_stop,Советская улица,56.8540413,60.636539
1741,tram_stop,Пионерская,56.8591686,60.6207666
1742,tram_stop,Педагогический университет,56.8783639,60.6109021
1743,tram_stop,Библиотека,56.8880247,60.5666403
1744,tram_stop,Улица Сварщиков,56.8799358,60.5582039
1745,tram_stop,Диагностический центр,56.88414,60.5700155
1746,tram_stop,Улица 40-летия Октября,56.8846433,60.5763491
1747,tram_stop,Улица Электриков,56.878269,60.6213185
1748,tram_stop,Улица Краснофлотцев,56.8900622,60.6316793
1749,tram_stop,улица Фронтовых Бригад,56.8833574,60.6386335
1750,tram_stop,Улица Фрезеровщиков,56.900566,60.6181518
1751,tram_stop,Улица Шевченко,56.8490132,60.6170708
1752,tram_stop,Шарташская улица,56.8452118,60.6184955
1753,tram_stop,Улица Пехотинцев,56.8703156,60.5491376
1754,tram_stop,Таганский ряд,56.8616273,60.5477148
1755,tram_stop,Фармацевтический колледж,56.8562467,60.5495145
1756,tram_stop,"ТРЦ ""Карнавал""",56.8533336,60.5521808
1757,tram_stop,Верх-Исетский рынок,56.8503162,60.5548923
1758,bus_stop,улица Блюхера,56.8509436,60.6412857
1759,tram_stop,Советская улица,56.8543895,60.6358969
1760,tram_stop,улица Блюхера,56.8514743,60.6415442
1761,tram_stop,Улица Мира,56.8535168,60.6458603
1762,tram_stop,Сахалинская улица,56.862228,60.6640951
1763,tram_stop,Шарташ,56.8646072,60.6693566
1764,tram_stop,УрФУ (Уральский федеральный университет),56.8435476,60.6452775
1765,tram_stop,Улица Ельцина,56.8453342,60.5861536
1766,tram_stop,Улица Шейнкмана,56.8411595,60.5805491
1767,tram_stop,площадь Коммунаров,56.8356033,60.5821522
1768,tram_stop,Улица Сакко и Ванцетти,56.8367853,60.58764
1769,bus_stop,Площадь 1-й пятилетки,56.8860901,60.5974852
1770,bus_stop,Педуниверситет,56.8783625,60.6141675
1771,bus_stop,Высоцкого,56.8433985,60.6880458
1772,bus_stop,Расточная,56.8823127,60.5196095
1773,bus_stop,Таганский ряд,56.8603692,60.5492256
1774,bus_stop,Уральская,56.8616857,60.6254165
1775,tram_stop,Разъезд,56.8368425,60.5304528
1776,tram_stop,Дворец спорта,56.8165448,60.589125
1777,tram_stop,Улица Куйбышева,56.8249629,60.58642
1778,tram_stop,Улица Куйбышева,56.8257384,60.5861022
1779,tram_stop,ЦПКиО (Центральный парк культуры и отдыха),56.8183796,60.6385975
1780,tram_stop,Шарташ,56.8642693,60.6690393
1781,bus_stop,Коммунистическая,56.9097455,60.5923394
1782,tram_stop,Диагностический центр,56.8842243,60.5706006
1783,tram_stop,Улица 40-летия Октября,56.8847347,60.576986
1784,tram_stop,Улица Уральских рабочих,56.9020924,60.5835828
1785,tram_stop,Кировградская улица,56.8975278,60.5777295
1786,tram_stop,Улица Учителей,56.8576603,60.6308405
1787,tram_stop,Первомайская улица,56.8458222,60.644382
1788,bus_stop,"Табачная фабрика ""Альвис""",56.7753438,60.6241555
1789,tram_stop,Улица Южная,56.8006142,60.6125249
1790,tram_stop,Киностудия,56.8396796,60.6206595
1791,tram_stop,Дворец молодёжи,56.8370508,60.5806056
1792,bus_stop,Синие Камни,56.8238565,60.6748514
1793,tram_stop,Шарташская улица,56.8456217,60.6182902
1794,tram_stop,Площадь 1905 года,56.8374153,60.5955779
1795,bus_stop,"Терминал ""Чкаловский""",56.7561044,60.7554885
1796,bus_stop,5-й км,56.8164147,60.427352
1797,tram_stop,Улица Мусоргского,56.7590394,60.5891915
1798,bus_stop,Исток,56.7874115,60.7879187
1799,bus_stop,Белореченская,56.8215796,60.5693475
1800,tram_stop,Расточная улица,56.8776237,60.5126846
1801,bus_stop,40 лет ВЛКСМ,56.8242191,60.6982734
1802,bus_stop,Стрельбище «Динамо»,56.8310884,60.4437817
1803,tram_stop,Сиреневый бульвар,56.8350443,60.6840922
1804,bus_stop,Реактивная,56.7757665,60.83198
1805,bus_stop,Дворец молодёжи,56.8371746,60.5817352
1806,tram_stop,Улица Московская,56.8297767,60.5847557
1807,tram_stop,Улица Кирова,56.8404331,60.5630628
1808,tram_stop,Ферганская улица,56.7727277,60.6122257
1809,tram_stop,Управление Свердловской железной дороги,56.8508826,60.593468
1810,bus_stop,Южная подстанция,56.7461944,60.6062521
1811,tram_stop,Ортопедическое предприятие,56.8511068,60.6164068
1812,tram_stop,Улица Ляпустина,56.7720042,60.5992421
1813,tram_stop,Улица Ляпустина,56.7719479,60.5996476
1814,bus_stop,УрФУ,56.8434804,60.6453938
1815,bus_stop,Площадь 1-й пятилетки,56.8863452,60.5912338
1816,bus_stop,Площадь 1-й пятилетки,56.8864594,60.5927614
1817,bus_stop,Спортивная,56.8936493,60.6413429
1818,bus_stop,"ТСЦ ""Мега""",56.8223413,60.5028538
1819,bus_stop,Ботаническая,56.797586,60.6309705
1820,tram_stop,Улица Кузнецова,56.8873991,60.6077915
1821,bus_stop,Радиоколледж,56.8322259,60.5257878
1822,tram_stop,Школа им. С.В. Рахманинова,56.8685405,60.526879
1823,tram_stop,Школа им. С.В. Рахманинова,56.8688749,60.5259754
1824,tram_stop,ТК «Современник»,56.856285,60.6517701
1825,tram_stop,Дом Кино,56.836045,60.6220364
1826,bus_stop,Уктус,56.7808704,60.6561309
1827,bus_stop,Шарташ,56.8301299,60.6464275
1828,bus_stop,ЦПКиО,56.8111459,60.6330959
1829,bus_stop,Лесное кладбище,56.757591,60.4522725
1830,bus_stop,Хладокомбинат № 3,56.888961,60.5067722
1831,tram_stop,ТЦ «Алатырь»,56.8322536,60.5835172
1832,bus_stop,Чкаловская,56.8077315,60.6104566
1833,bus_stop,Расточная,56.8834467,60.5211836
1834,bus_stop,Екатеринбург-Пассажирский,56.8590244,60.6058587
1835,bus_stop,Екатеринбург-Пассажирский,56.8594552,60.6058329
1836,bus_stop,Екатеринбург-Пассажирский,56.8596815,60.6039467
1837,bus_stop,Екатеринбург-Пассажирский,56.8598378,60.6039706
1838,bus_stop,Екатеринбург-Пассажирский,56.8600125,60.6039973
1839,bus_stop,Фрезеровщиков,56.9014432,60.6141681
1840,tram_stop,Улица Войкова,56.8974855,60.6233289
1841,tram_stop,Улица Войкова,56.8977368,60.6229476
1842,tram_stop,Улица Энтузиастов,56.8941039,60.627153
1843,tram_stop,Улица Энтузиастов,56.8945645,60.6265709
1844,tram_stop,Станция метро Ботаническая,56.7983973,60.6282692
1845,tram_stop,бульвар Малахова,56.7976308,60.6206586
1846,tram_stop,улица Юлиуса Фучика,56.7976002,60.6116937
1847,tram_stop,Дружининская улица,56.8814975,60.503258
1848,tram_stop,Кишинёвская улица,56.8790725,60.5091317
1849,bus_stop,Аппаратная,56.8715341,60.6748004
1850,bus_stop,Чапаевская,56.8091591,60.7182184
1851,bus_stop,Чапаевская,56.8095864,60.7185717
1852,tram_stop,Улица Шевченко,56.8485404,60.6172894
1853,tram_stop,Ортопедическое предприятие,56.8514513,60.6162375
1854,bus_stop,Краснолесье,56.7809744,60.5427441
1855,bus_stop,Огородная,56.902818,60.458753
1856,tram_stop,Улица Мира,56.8532126,60.6453036
1857,tram_stop,Студенческая улица,56.8581507,60.6556893
1858,tram_stop,Станция метро Ботаническая,56.7981955,60.6295291
1859,bus_stop,Авиационная,56.8053433,60.6254144
1860,bus_stop,Азина,56.8534741,60.6046673
1861,bus_stop,Артиллерийский институт,56.7698999,60.669637
1862,bus_stop,Архитектурная академия,56.8404104,60.6111367
1863,bus_stop,Библиотека им. Белинского,56.8345666,60.6143119
1864,bus_stop,Большакова,56.8187521,60.6198758
1865,bus_stop,Бородина,56.7546865,60.7027761
1866,bus_stop,Проспект Ленина (улица Карла Либкнехта),56.83632,60.6125062
1867,bus_stop,ДК Железнодорожников,56.8556028,60.6042083
1868,bus_stop,Каменный ручей,56.7764262,60.6640765
1869,bus_stop,ДК Химмаш,56.7523827,60.6945037
1870,bus_stop,Декабристов,56.8244913,60.6178438
1871,bus_stop,Димитрова,56.7467667,60.687034
1872,bus_stop,Дом музыки,56.8496328,60.6063889
1873,bus_stop,Дом музыки,56.8506072,60.6055561
1874,bus_stop,Ж/Д Вокзал,56.8572498,60.6055113
1875,bus_stop,Ж/Д Вокзал,56.8572886,60.6068332
1876,bus_stop,Инженера Алиева,56.7496945,60.6803447
1877,bus_stop,Карла Маркса,56.8312986,60.6158439
1878,bus_stop,Куйбышева,56.8279905,60.616623
1879,bus_stop,Нижнеисетск,56.7538519,60.6759641
1880,bus_stop,Саввы Белых,56.8013067,60.6294935
1881,bus_stop,Садовая,56.765725,60.6713329
1882,bus_stop,Самолётная (улица Щербакова),56.7927229,60.6429148
1883,bus_stop,ТРК Глобус,56.7876186,60.6477187
1884,bus_stop,ТЮЗ,56.8466098,60.6091438
1885,bus_stop,ТЮЗ,56.8470919,60.6092712
1886,bus_stop,Уктус,56.7802899,60.6570585
1887,bus_stop,Фрунзе,56.8149378,60.621191
1888,bus_stop,Химмаш,56.7612013,60.7019877
1889,bus_stop,Улица Шварца,56.7979966,60.6333927
1890,bus_stop,Широкий переулок,56.7842452,60.6519508
1891,bus_stop,Щорса,56.8109106,60.6226318
1892,bus_stop,Авиационная,56.804821,60.6258959
1893,bus_stop,Артиллерийский институт,56.7705275,60.6693991
1894,bus_stop,Архитектурная академия,56.8410191,60.6107623
1895,bus_stop,Бородина,56.7541087,60.7007715
1896,bus_stop,Гончарный,56.7835314,60.6526264
1897,bus_stop,ДК Химмаш,56.7531493,60.695983
1898,bus_stop,Дагестанская,56.7613937,60.7036109
1899,bus_stop,Димитрова,56.7467927,60.6887177
1900,bus_stop,Инженера Алиева,56.749022,60.6810244
1901,bus_stop,Инженерная,56.7568697,60.7077917
1902,bus_stop,Косарева,56.7496687,60.6927507
1903,bus_stop,Сандуновские бани,56.827976,60.6136255
1904,bus_stop,Музей Бажова,56.8181912,60.6131722
1905,bus_stop,Нижнеисетск,56.7533573,60.6764898
1906,bus_stop,Прониной,56.7730225,60.6679174
1907,bus_stop,Проспект Ленина,56.8378173,60.6118128
1908,bus_stop,Розы Люксембург,56.8345383,60.6121207
1909,bus_stop,Саввы Белых,56.8003214,60.6302073
1910,bus_stop,Садовая,56.7650755,60.6717282
1911,bus_stop,Самолётная,56.7916957,60.6436655
1912,bus_stop,ТРК Глобус,56.7868442,60.6482552
1913,bus_stop,Трамвайный парк,56.8145305,60.6145807
1914,bus_stop,Федерация профсоюзов,56.8314087,60.6132112
1915,bus_stop,Фрунзе,56.8137896,60.6215918
1916,bus_stop,Чапаева,56.8229773,60.6113764
1917,bus_stop,Улица Шварца,56.797297,60.6356315
1918,bus_stop,Щорса,56.8092953,60.623252
1919,bus_stop,Восточная автостанция,56.8424993,60.6320577
1920,bus_stop,Екатеринбург. Северный автовокзал,56.8575434,60.5980909
1921,bus_stop,"ТЦ ""Леруа Мерлен""",56.8020155,60.6484257
1922,bus_stop,УрФУ,56.843082,60.6463318
1923,bus_stop,Ж/Д Вокзал,56.8575202,60.6068142
1924,bus_stop,Краснолесье,56.7809634,60.5430322
1925,bus_stop,Учителей,56.8666103,60.6337341
1926,bus_stop,Азина,56.8542456,60.6046331
1927,bus_stop,улица Викулова,56.8303378,60.5446423
1928,bus_stop,улица Викулова,56.8310692,60.5459196
1929,bus_stop,улица Викулова,56.8311745,60.5441365
1930,bus_stop,Драмтеатр,56.8421525,60.5957425
1931,bus_stop,Ельцина,56.8450724,60.5884894
1932,bus_stop,Заводская,56.8306112,60.5533633
1933,bus_stop,Заводская,56.830765,60.5509831
1934,bus_stop,Институт связи,56.8296967,60.5722228
1935,tram_stop,улица Металлургов,56.8282925,60.5442678
1936,bus_stop,Парк Хаус,56.8619116,60.6325574
1937,bus_stop,Парфюмерная фабрика,56.8300971,60.6636708
1938,bus_stop,Пионерская,56.8592491,60.6206483
1939,bus_stop,Советская,56.8538571,60.6365728
1940,bus_stop,Токарей,56.8293334,60.5613295
1941,bus_stop,Токарей,56.8299641,60.5631124
1942,bus_stop,Токарей,56.8301301,60.5605188
1943,bus_stop,Токарей,56.8304693,60.5617413
1944,bus_stop,Управление дороги,56.8502985,60.5928557
1945,bus_stop,Уралобувь,56.8320339,60.6553373
1946,bus_stop,Учителей,56.8573304,60.6310183
1947,bus_stop,улица Блюхера,56.8518485,60.6402337
1948,bus_stop,Мира,56.8383281,60.652728
1949,bus_stop,Первомайская улица,56.8459565,60.6444388
1950,bus_stop,Советская,56.854704,60.6356948
1951,bus_stop,УрФУ,56.843664,60.6506404
1952,bus_stop,Уралобувь,56.8324544,60.6549555
